"ID";"Name";"Longitude_WGS84";"Latitude_WGS84";"Street";"AdmArea";"District";"RouteNumbers";"StationName";"Direction";"Pavilion";"OperatingOrgName";"EntryState";"global_id";"geoData";
"65";"«Бескудниково», Дмитровское шоссе (от центра)";"37.5481064149132";"55.8743403107145";"Дмитровское шоссе";"Северный административный округ";"Бескудниковский район";"А179; А63; А685; А763; А763К; А799; Тб78";"Бескудниково";"от центра";"да";"ГУП «Мосгортранс»";"активна";"1715951";"{type=Point, coordinates=[37.5481064459488, 55.8743399430135]}";
"66";"«Баскетбольная школа», Дубнинская улица (от центра)";"37.5577474506093";"55.8806124293294";"Дубнинская улица";"Северный административный округ";"район Восточное Дегунино";"А167; А179; А677; А799";"Баскетбольная школа";"от центра";"да";"ГУП «Мосгортранс»";"активна";"1715952";"{type=Point, coordinates=[37.5577474807871, 55.8806120619554]}";
"67";"«Д/к Юность», Дубнинская улица (от центра)";"37.5577143072322";"55.8840806051129";"Дубнинская улица";"Северный административный округ";"район Восточное Дегунино";"А167; А179; А677; А799";"Д/к Юность";"от центра";"да";"ГУП «Мосгортранс»";"активна";"1715953";"{type=Point, coordinates=[37.5577143374513, 55.8840802374343]}";
"68";"«Мкр. Дубки», Дубнинская улица (от центра)";"37.5576796942824";"55.8876178739915";"Дубнинская улица";"Северный административный округ";"район Восточное Дегунино";"А167; А179; А677; А799";"Мкр. Дубки";"от центра";"да";"ГУП «Мосгортранс»";"активна";"1715954";"{type=Point, coordinates=[37.5576797244719, 55.8876175064199]}";
"69";"«Ин-т Стали», Дубнинская улица (от центра)";"37.5576213841246";"55.8922865043233";"Дубнинская улица";"Северный административный округ";"район Восточное Дегунино";"А167; А179; А677; А799";"Ин-т Стали";"от центра";"да";"ГУП «Мосгортранс»";"активна";"1715955";"{type=Point, coordinates=[37.5576214148359, 55.8922861368693]}";
"70";"«Керамический пр.», Дубнинская улица (от центра)";"37.5575632613255";"55.8943697899337";"Дубнинская улица";"Северный административный округ";"район Восточное Дегунино";"А167; А179; А677; А799";"Керамический пр.";"от центра";"да";"ГУП «Мосгортранс»";"активна";"1715956";"{type=Point, coordinates=[37.5575632920449, 55.8943694225398]}";
"71";"«Платф. Лианозово (выс.)», Керамический проезд (от центра)";"37.5549571619866";"55.8963512704889";"Керамический проезд";"Северный административный округ";"район Восточное Дегунино";"А167; А179; А677; А799";"Платф. Лианозово (выс.)";"от центра";"нет";"";"активна";"1715957";"{type=Point, coordinates=[37.5549571923032, 55.8963509029091]}";
"72";"«Ст. Ховрино (пос.)», Деповская улица (в центр)";"37.5115874291216";"55.8696342517162";"Деповская улица";"Северный административный округ";"район Западное Дегунино";"А270; А748; А154; А215; А191; А215к; А665";"Ст. Ховрино (пос.)";"в центр";"нет";"";"активна";"1715958";"{type=Point, coordinates=[37.5115874603723, 55.8696338840642]}";
"73";"«Весенняя ул.», Ангарская улица (от центра)";"37.514624185678";"55.8738206971876";"Ангарская улица";"Северный административный округ";"район Западное Дегунино";"А665";"Весенняя ул.";"от центра";"да";"ГУП «Мосгортранс»";"активна";"1715959";"{type=Point, coordinates=[37.5146242169109, 55.8738203293363]}";
"74";"«Мкр. Западное Дегунино», Ангарская улица (от центра)";"37.5174087980569";"55.8761341927622";"Ангарская улица";"Северный административный округ";"район Западное Дегунино";"А665";"Мкр. Западное Дегунино";"от центра";"да";"ГУП «Мосгортранс»";"активна";"1715960";"{type=Point, coordinates=[37.5174088289285, 55.876133825272]}";
"75";"«Ангарская ул.», Коровинское шоссе (от центра)";"37.5224620961276";"55.8789531518122";"Коровинское шоссе";"Северный административный округ";"Дмитровский район";"А665; А799; А656; А571; А352; А270; А191; А114; Тб56";"Ангарская ул.";"от центра";"да";"ГУП Мосгортранс";"активна";"1715961";"{type=Point, coordinates=[37.5224621267086, 55.8789527842319]}";
"76";"«Колледж № 7», Клязьминская улица (от центра)";"37.5205108862106";"55.8844530846047";"Клязьминская улица";"Северный административный округ";"Дмитровский район";"А194; А665; А200";"Колледж № 7";"от центра";"да";"ГУП «Мосгортранс»";"активна";"1715962";"{type=Point, coordinates=[37.520510917248, 55.8844527170027]}";
"77";"«Ин-т Микрохирургии глаза», Коровинское шоссе (в центр)";"37.5370259547632";"55.8689609283798";"Коровинское шоссе";"Северный административный округ";"район Западное Дегунино";"А194; А672; А215К; А656; А191; А591; Тб56";"Ин-т Микрохирургии глаза";"в центр";"да";"ГУП «Мосгортранс»";"активна";"1715963";"{type=Point, coordinates=[37.5370259855544, 55.8689605607281]}";
"11";"«Наб. Тараса Шевченко», набережная Тараса Шевченко (от центра)";"37.5728749603633";"55.7494564437325";"набережная Тараса Шевченко";"Западный административный округ";"район Дорогомилово";"А157; А840; А91";"Наб. Тараса Шевченко";"от центра";"да";"ЗАО «Валль СНГ»";"активна";"1715965";"{type=Point, coordinates=[37.5728749907897, 55.7494560751725]}";
"26";"«ВКНЦ», 3-я Черепковская улица (в центр)";"37.3754792363795";"55.7573179114445";"3-я Черепковская улица";"Западный административный округ";"район Кунцево";"А642; А660; А798; А816; А829";"ВКНЦ";"в центр";"нет";"";"активна";"1715966";"{type=Point, coordinates=[37.3754792673938, 55.7573175430039]}";
"32";"«Новосущевская ул.», улица Сущёвский Вал (в центр)";"37.6030389738122";"55.7927166482232";"улица Сущёвский Вал";"Северо-Восточный административный округ";"район Марьина Роща";"А126; А84; А84А; А84К; Тб18; Тб42";"Новосущевская ул.";"в центр";"да";"ООО «Праймсайт»";"активна";"1715967";"{type=Point, coordinates=[37.6030390040499, 55.7927162800409]}";
"34";"«Керамический пр.», Дубнинская улица (в центр)";"37.5572887599564";"55.8946794410296";"Дубнинская улица";"Северный административный округ";"район Восточное Дегунино";"А167; А179; А677; А799";"Керамический пр.";"в центр";"да";"ГУП Мосгортранс";"активна";"1715968";"{type=Point, coordinates=[37.557288790254, 55.8946790736417]}";
"35";"«Ин-т Стали», Дубнинская улица (в центр)";"37.5572840752764";"55.8914995952832";"Дубнинская улица";"Северный административный округ";"район Восточное Дегунино";"А179; А167; А799; А677";"Ин-т Стали";"в центр";"да";"ГУП «Мосгортранс»";"активна";"1715969";"{type=Point, coordinates=[37.5572841055341, 55.891499227963]}";
"36";"«Мкр. Дубки», Дубнинская улица (в центр)";"37.5573740463654";"55.8874753366993";"Дубнинская улица";"Северный административный округ";"район Восточное Дегунино";"А799; А179; А677К; А677; А167";"Мкр. Дубки";"в центр";"да";"ГУП «Мосгортранс»";"активна";"1715970";"{type=Point, coordinates=[37.5573740769569, 55.8874749691459]}";
"37";"«Д/к Юность», Дубнинская улица (в центр)";"37.5573868213569";"55.8836870313309";"Дубнинская улица";"Северный административный округ";"район Восточное Дегунино";"А167; А179; А677; А799";"Д/к Юность";"в центр";"да";"ГУП «Мосгортранс»";"активна";"1715971";"{type=Point, coordinates=[37.557386852126, 55.8836866639872]}";
"38";"«Баскетбольная школа», улица 800-летия Москвы (в центр)";"37.5563322219911";"55.8800927745315";"улица 800-летия Москвы";"Северный административный округ";"район Восточное Дегунино";"А149; А167; А179; А748; А799; А857";"Баскетбольная школа";"в центр";"да";"ГУП «Мосгортранс»";"активна";"1715972";"{type=Point, coordinates=[37.5563322524459, 55.8800924067225]}";
"39";"«ВИСХОМ», Дмитровское шоссе (в центр)";"37.5459877190328";"55.8777403241782";"Дмитровское шоссе";"Северный административный округ";"Бескудниковский район";"Тб78; А763К; А685; А763; А63; А179";"ВИСХОМ";"в центр";"да";"ГУП «Мосгортранс»";"активна";"1715973";"{type=Point, coordinates=[37.5459877496192, 55.877739956359]}";
"40";"«Бескудниково», Дмитровское шоссе (в центр)";"37.5470337861932";"55.8746580911101";"Дмитровское шоссе";"Северный административный округ";"Бескудниковский район";"А763К; А685; А763; А63; А179; Тб78";"Бескудниково";"в центр";"да";"ГУП «Мосгортранс»";"активна";"1715974";"{type=Point, coordinates=[37.5470338170884, 55.8746577235621]}";
"41";"«Селигерская ул.», Дмитровское шоссе (в центр)";"37.5467394019306";"55.8692630339421";"Дмитровское шоссе";"Северный административный округ";"Бескудниковский район";"А763К; А763; А63; А179; Тб78; А994";"Селигерская ул.";"в центр";"нет";"";"активна";"1715975";"{type=Point, coordinates=[37.546739432611, 55.8692626662854]}";
"42";"«К/т Ереван», Дмитровское шоссе (в центр)";"37.5487176869631";"55.8632480525362";"Дмитровское шоссе";"Северный административный округ";"район Западное Дегунино";"А179; А215К; А763К; А672; А656; А194; А215; А63; А191; А763; Тб56; Тб78; А685";"К/т Ереван";"в центр";"нет";"";"активна";"1715976";"{type=Point, coordinates=[37.5487177176094, 55.8632476848415]}";
"43";"«Ильменский пр.», Дмитровское шоссе (в центр)";"37.5538582507582";"55.8604866689382";"Дмитровское шоссе";"Северный административный округ";"район Западное Дегунино";"А194; А672; А763К; А179; А215К; А656; А994; А215; А63; А191; А591; А763; Тб56; Тб78; А685";"Ильменский пр.";"в центр";"да";"ГУП «Мосгортранс»";"активна";"1715977";"{type=Point, coordinates=[37.5538582813407, 55.860486301223]}";
"44";"«Ин-т Цветметавтоматика», Дмитровское шоссе (в центр)";"37.5598480604911";"55.8573237625026";"Дмитровское шоссе";"Северный административный округ";"район Западное Дегунино";"А763К; А179; А215К; А656; А994; А215; А63; А191; А591; А763; Тб56; Тб78; А685";"Ин-т Цветметавтоматика";"в центр";"нет";"";"активна";"1715978";"{type=Point, coordinates=[37.5598480909997, 55.857323394764]}";
"45";"«7-й автобусный парк», Дмитровское шоссе (в центр)";"37.5655963387583";"55.850693448432";"Дмитровское шоссе";"Северный административный округ";"район Западное Дегунино";"А114; А149; А154; А167; А179; А194; А215К; А63; А656; А672; А677; А763К";"7-й автобусный парк";"в центр";"да";"ГУП «Мосгортранс»";"активна";"1715979";"{type=Point, coordinates=[37.5655963698789, 55.8506930807117]}";
"46";"«Нижн. Лихоборы», Дмитровское шоссе (в центр)";"37.5677995533918";"55.8466305437482";"Дмитровское шоссе";"Северный административный округ";"Тимирязевский район";"А114; А170; А179; А154; А149; А656; А215К; А63";"Нижн. Лихоборы";"в центр";"нет";"";"активна";"1715980";"{type=Point, coordinates=[37.5677995842152, 55.8466301760134]}";
"47";"«Метро Петровско-Разумовская», Локомотивный проезд (от центра)";"37.5758649962844";"55.8371106618329";"Локомотивный проезд";"Северный административный округ";"Тимирязевский район";"А204; А114; А179";"Метро Петровско-Разумовская";"от центра";"да";"ГУП «Мосгортранс»";"активна";"1715981";"{type=Point, coordinates=[37.5758650270918, 55.8371102939733]}";
"48";"«К/т Байкал», Большая Академическая улица (в центр)";"37.5390371943553";"55.8368370506184";"Большая Академическая улица";"Северный административный округ";"район Коптево";"А204; А114; А179; Тб57";"К/т Байкал";"в центр";"нет";"";"активна";"1715982";"{type=Point, coordinates=[37.5390372246519, 55.83683668263]}";
"49";"«Стадион Наука», Большая Академическая улица (в центр)";"37.532735066237";"55.8327438256984";"Большая Академическая улица";"Северный административный округ";"район Коптево";"А204; А114; А179; Тб57";"Стадион Наука";"в центр";"да";"ГУП Мосгортранс";"активна";"1715983";"{type=Point, coordinates=[37.5327350974315, 55.8327434578153]}";
"50";"«Управа района Коптево», улица Зои и Александра Космодемьянских (в центр)";"37.5224977648471";"55.8241143721796";"улица Зои и Александра Космодемьянских";"Северный административный округ";"район Коптево";"А204; А780; А179";"Управа района Коптево";"в центр";"да";"ГУП «Мосгортранс»";"активна";"1715984";"{type=Point, coordinates=[37.5224977955533, 55.824114004056]}";
"51";"«К/т Рассвет - Техникум», улица Зои и Александра Космодемьянских (в центр) (1)";"37.5189194299331";"55.8230814674339";"улица Зои и Александра Космодемьянских";"Северный административный округ";"район Коптево";"А204; А179; А780";"К/т Рассвет - Техникум";"в центр";"да";"ГУП «Мосгортранс»";"активна";"1715985";"{type=Point, coordinates=[37.5189194609178, 55.8230810997545]}";
"52";"«3-й Новоподмосковный пер.», улица Зои и Александра Космодемьянских (в центр) (1)";"37.5107490152071";"55.8208906679114";"улица Зои и Александра Космодемьянских";"Северный административный округ";"Войковский район";"А204; А780; А179";"3-й Новоподмосковный пер.";"в центр";"нет";"";"активна";"1715986";"{type=Point, coordinates=[37.5107490455703, 55.8208902998725]}";
"53";"«3-й Новоподмосковный пер.», улица Зои и Александра Космодемьянских ( (от центра))(от центра)";"37.5120255428533";"55.8211061351672";"улица Зои и Александра Космодемьянских";"Северный административный округ";"Войковский район";"А204; А780; А179";"3-й Новоподмосковный пер.";"от центра";"да";"ГУП «Мосгортранс»";"активна";"1715987";"{type=Point, coordinates=[37.5120255740131, 55.8211057671915]}";
"54";"«К/т Рассвет - Техникум», улица Зои и Александра Космодемьянских (от центра)";"37.5165731849562";"55.8223086988215";"улица Зои и Александра Космодемьянских";"Северный административный округ";"Войковский район";"А204; А780; А179";"К/т Рассвет - Техникум";"от центра";"да";"ГУП «Мосгортранс»";"активна";"1715988";"{type=Point, coordinates=[37.5165732159674, 55.8223083308729]}";
"55";"«Управа района Коптево», улица Зои и Александра Космодемьянских (от центра)";"37.5227932581195";"55.8238959927435";"улица Зои и Александра Космодемьянских";"Северный административный округ";"район Коптево";"А204; А780; А179";"Управа района Коптево";"от центра";"нет";"";"активна";"1715989";"{type=Point, coordinates=[37.5227932882727, 55.8238956245918]}";
"56";"«Стадион Наука», Большая Академическая улица (от центра)";"37.5336913330729";"55.8334296758173";"Большая Академическая улица";"Северный административный округ";"район Коптево";"А204; А114; А179; Тб57";"Стадион Наука";"от центра";"да";"ГУП «Мосгортранс»";"активна";"1715990";"{type=Point, coordinates=[37.5336913639236, 55.8334293080039]}";
"60";"«7-й автобусный парк», Дмитровское шоссе (от центра) (1)";"37.5656565306507";"55.8515226078484";"Дмитровское шоссе";"Северный административный округ";"Бескудниковский район";"А179; А194; А215К; А63; А656; А672; А763; А763К";"7-й автобусный парк";"от центра";"да";"ГУП «Мосгортранс»";"активна";"1715992";"{type=Point, coordinates=[37.565656561496, 55.8515222398665]}";
"61";"«Ин-т Цветметавтоматика», Дмитровское шоссе (от центра)";"37.5596302223706";"55.8578674457398";"Дмитровское шоссе";"Северный административный округ";"Бескудниковский район";"А799; А763К; А179; А215К; А656; А994; А215; А63; А191; А591; А763; Тб36; АТ47; Тб56; Тб78; А685";"Ин-т Цветметавтоматика";"от центра";"да";"ГУП «Мосгортранс»";"активна";"1715993";"{type=Point, coordinates=[37.5596302528826, 55.8578670780046]}";
"62";"«Ильменский пр.», Дмитровское шоссе (от центра)";"37.554185078081";"55.8607566792635";"Дмитровское шоссе";"Северный административный округ";"Бескудниковский район";"А194; А672; А799; А763К; А179; А215К; А656; А994; А215; А63; А191; А591; А763; Тб36; АТ47; Тб56; Тб78; А685";"Ильменский пр.";"от центра";"да";"ГУП «Мосгортранс»";"активна";"1715994";"{type=Point, coordinates=[37.5541851086603, 55.8607563115497]}";
"63";"«К/т Ереван», Дмитровское шоссе (от центра) (1)";"37.549403760353";"55.8636097265725";"Дмитровское шоссе";"Северный административный округ";"Бескудниковский район";"А799; А179; А215К; А656; А763К; А994; А215; А63; А191; А591; А763; Тб56; Тб78; А685";"К/т Ереван";"от центра";"да";"ГУП «Мосгортранс»";"активна";"1715995";"{type=Point, coordinates=[37.5494037909921, 55.8636093588794]}";
"64";"«Селигерская ул.», Дмитровское шоссе (от центра) (1)";"37.5474734899312";"55.8686160017904";"Дмитровское шоссе";"Северный административный округ";"Бескудниковский район";"А179; А63; А763; А763К; Тб78; А994";"Селигерская ул.";"от центра";"да";"ГУП «Мосгортранс»";"активна";"1715996";"{type=Point, coordinates=[37.5474735206019, 55.8686156341292]}";
"78";"«Селигерская ул.», Коровинское шоссе (в центр)";"37.5422632531603";"55.8665159588339";"Коровинское шоссе";"Северный административный округ";"район Западное Дегунино";"А194; А672; А215К; А656";"Селигерская ул.";"в центр";"да";"ГУП «Мосгортранс»";"активна";"1715997";"{type=Point, coordinates=[37.5422632841666, 55.8665155911451]}";
"79";"«К/т Комсомолец», Дмитровское шоссе (в центр)";"37.5696394036984";"55.8418459893608";"Дмитровское шоссе";"Северный административный округ";"Тимирязевский район";"А114; А149; А167; А170; А179; А215К; А656; А677; А692; А763; А763К; А466; А215; А63; А191; А591; АМ10";"К/т Комсомолец";"в центр";"нет";"";"активна";"1715998";"{type=Point, coordinates=[37.5696394345108, 55.8418456216149]}";
"80";"«Педагогический колледж», Большая Академическая улица (в центр)";"37.5529595017132";"55.8420113607243";"Большая Академическая улица";"Северный административный округ";"район Коптево";"А114; А123; А179; А204; А87; Тб57";"Педагогический колледж";"в центр";"да";"ГУП «Мосгортранс»";"активна";"1715999";"{type=Point, coordinates=[37.5529595321715, 55.8420109930825]}";
"81";"«Университет Природообустройства», Большая Академическая улица (в центр)";"37.5437023730235";"55.8385790874819";"Большая Академическая улица";"Северный административный округ";"район Коптево";"А204; А114; А179; Тб57";"Университет Природообустройства";"в центр";"да";"ГУП «Мосгортранс»";"активна";"1716000";"{type=Point, coordinates=[37.5437024040456, 55.8385787198569]}";
"82";"«Роддом № 27», Большая Академическая улица (в центр)";"37.5305406630391";"55.8291873799569";"Большая Академическая улица";"Северный административный округ";"район Коптево";"А204; А179; Тб57";"Роддом № 27";"в центр";"да";"ГУП «Мосгортранс»";"активна";"1716001";"{type=Point, coordinates=[37.5305406937708, 55.8291870118543]}";
"83";"«Роддом № 27», Большая Академическая улица (от центра)";"37.5309405684472";"55.8293893551711";"Большая Академическая улица";"Северный административный округ";"район Коптево";"А204; А179; Тб57";"Роддом № 27";"от центра";"да";"ГУП «Мосгортранс»";"активна";"1716002";"{type=Point, coordinates=[37.5309405994768, 55.8293889870519]}";
"84";"«Университет Природообустройства», Большая Академическая улица (от центра)";"37.5446503081702";"55.838721688881";"Большая Академическая улица";"Северный административный округ";"Тимирязевский район";"А204; А114; А179; Тб57";"Университет Природообустройства";"от центра";"да";"ГУП «Мосгортранс»";"активна";"1716003";"{type=Point, coordinates=[37.5446503386624, 55.8387213208029]}";
"85";"«Педагогический колледж», Большая Академическая улица (от центра)";"37.5538849507019";"55.8421670153415";"Большая Академическая улица";"Северный административный округ";"Тимирязевский район";"А114; А123; А179; А204; А87; Тб57";"Педагогический колледж";"от центра";"да";"ГУП «Мосгортранс»";"активна";"1716004";"{type=Point, coordinates=[37.5538849810587, 55.8421666474363]}";
"86";"«Метро Петровско-Разумовская», Локомотивный проезд (от центра) (2)";"37.5751719781388";"55.8368241077002";"Локомотивный проезд";"Северный административный округ";"Тимирязевский район";"А194; А63";"Метро Петровско-Разумовская";"от центра";"да";"ГУП «Мосгортранс»";"активна";"1716005";"{type=Point, coordinates=[37.5751720091918, 55.8368237399202]}";
"6";"«Дербеневская наб.», 3-й Дербеневский переулок (от центра)";"37.6551210101201";"55.7256294707454";"3-й Дербеневский переулок";"Южный административный округ";"Даниловский район";"А632";"Дербеневская наб.";"от центра";"нет";"";"активна";"1716008";"{type=Point, coordinates=[37.655121040822, 55.7256291020388]}";
"149";"«Ф-ка игрушек», улица Клары Цеткин (в центр)";"37.5111664480611";"55.8299092807933";"улица Клары Цеткин";"Северный административный округ";"Войковский район";"А90; А621";"Ф-ка игрушек";"в центр";"да";"ГУП «Мосгортранс»";"активна";"1716011";"{type=Point, coordinates=[37.5111664792157, 55.8299089131392]}";
"150";"«Старопетровский пр.», Старопетровский проезд (в центр)";"37.5079320444818";"55.8246730213849";"Старопетровский проезд";"Северный административный округ";"Войковский район";"А114; А90; А621";"Старопетровский пр.";"в центр";"да";"ГУП «Мосгортранс»";"активна";"1716012";"{type=Point, coordinates=[37.5079320749964, 55.8246726536495]}";
"151";"«Онкологический диспансер», Старопетровский проезд (в центр)";"37.5035053451347";"55.8236398010361";"Старопетровский проезд";"Северный административный округ";"Войковский район";"А114; А90; А621";"Онкологический диспансер";"в центр";"да";"ГУП «Мосгортранс»";"активна";"1716013";"{type=Point, coordinates=[37.5035053760815, 55.8236394331496]}";
"153";"«Коровинское ш.», Коровинское шоссе (в центр)";"37.5185591871758";"55.8823802741851";"Коровинское шоссе";"Северный административный округ";"район Западное Дегунино";"А665; А799; А656; А352; А270; А191; А114; Тб56";"Коровинское ш.";"в центр";"да";"ГУП «Мосгортранс»";"активна";"1716014";"{type=Point, coordinates=[37.5185592178728, 55.8823799066284]}";
"154";"«Талдомская ул.», улица 800-летия Москвы (от центра)";"37.5285315517599";"55.8751612193139";"улица 800-летия Москвы";"Северный административный округ";"Дмитровский район";"А284; А748; А857; А92; А799; А114; А154";"Талдомская ул.";"от центра";"да";"ГУП «Мосгортранс»";"активна";"1716015";"{type=Point, coordinates=[37.5285315830097, 55.8751608518504]}";
"155";"«Ин-т Микрохирургии глаза», Бескудниковский бульвар (в центр)";"37.5387679413813";"55.8731845474356";"Бескудниковский бульвар";"Северный административный округ";"Бескудниковский район";"А114; А154; А167; А206к; АМ10";"Ин-т Микрохирургии глаза";"в центр";"да";"ГУП «Мосгортранс»";"активна";"1716016";"{type=Point, coordinates=[37.5387679717887, 55.8731841799001]}";
"156";"«Муз. школа», Бескудниковский бульвар (в центр)";"37.543836620982";"55.8735039137958";"Бескудниковский бульвар";"Северный административный округ";"Бескудниковский район";"А114; А154; А167; А206к; АМ10";"Муз. школа";"в центр";"да";"ГУП «Мосгортранс»";"активна";"1716017";"{type=Point, coordinates=[37.5438366519413, 55.8735035463354]}";
"168";"«Метро Петровско-Разумовская», Локомотивный проезд (от центра) (1)";"37.5757940226963";"55.8372395445044";"Локомотивный проезд";"Северный административный округ";"Тимирязевский район";"А167; А114";"Метро Петровско-Разумовская";"от центра";"да";"ГУП «Мосгортранс»";"активна";"1716018";"{type=Point, coordinates=[37.5757940538967, 55.8372391768794]}";
"184";"«Детский сад», Нарвская улица (в центр)";"37.5033472864703";"55.8412279492353";"Нарвская улица";"Северный административный округ";"Головинский район";"А123";"Детский сад";"в центр";"нет";"";"активна";"1716019";"{type=Point, coordinates=[37.5033473171254, 55.8412275813092]}";
"185";"«3-й Лихачевский пер.», 3-й Лихачёвский переулок (от центра)";"37.5215505647903";"55.8488434292284";"3-й Лихачёвский переулок";"Северный административный округ";"Головинский район";"А123; А22";"3-й Лихачевский пер.";"от центра";"да";"ГУП «Мосгортранс»";"активна";"1716020";"{type=Point, coordinates=[37.521550594922, 55.8488430612705]}";
"126";"«Протезный з-д», Коровинское шоссе (от центра)";"37.5288255572927";"55.8735356509245";"Коровинское шоссе";"Северный административный округ";"Дмитровский район";"А194; А672; А92; А215К; А656; А215; А191; А591; Тб56";"Протезный з-д";"от центра";"да";"ГУП «Мосгортранс»";"активна";"1716021";"{type=Point, coordinates=[37.5288255881874, 55.8735352833065]}";
"127";"«Талдомская ул.», Коровинское шоссе (от центра)";"37.5261550167749";"55.8753552692633";"Коровинское шоссе";"Северный административный округ";"Дмитровский район";"А194; А672; А92; А215К; А656; А215; А191; А591; Тб56";"Талдомская ул.";"от центра";"да";"ГУП «Мосгортранс»";"активна";"1716022";"{type=Point, coordinates=[37.5261550477042, 55.8753549016583]}";
"128";"«Ангарская ул.», Ангарская улица (от центра)";"37.5256865863835";"55.8792025980261";"Ангарская улица";"Северный административный округ";"Дмитровский район";"А194; А672";"Ангарская ул.";"от центра";"да";"ГУП «Мосгортранс»";"активна";"1716023";"{type=Point, coordinates=[37.5256866176479, 55.8792022302591]}";
"129";"«Ангарская ул., 49», Ангарская улица (от центра)";"37.529303082826";"55.8812512693076";"Ангарская улица";"Северный административный округ";"Дмитровский район";"А194; А672";"Ангарская ул., 49";"от центра";"да";"ГУП «Мосгортранс»";"активна";"1716024";"{type=Point, coordinates=[37.5293031136717, 55.8812509018227]}";
"130";"«Храм Матроны Московской», Ангарская улица (от центра)";"37.53007852";"55.88382937";"Ангарская улица";"Северный административный округ";"Дмитровский район";"А194; А672; А428; А191";"Храм Матроны Московской";"от центра";"да";"ГУП «Мосгортранс»";"активна";"1716025";"{type=Point, coordinates=[37.5300785510995, 55.883829002232]}";
"131";"«Клязьминская ул.», Ангарская улица (от центра)";"37.5259505671059";"55.8863361921643";"Ангарская улица";"Северный административный округ";"Дмитровский район";"А194; А672";"Клязьминская ул.";"от центра";"да";"ГУП «Мосгортранс»";"активна";"1716026";"{type=Point, coordinates=[37.525950598386, 55.8863358245349]}";
"132";"«Учебный центр», Клязьминская улица (в центр)";"37.5214748734725";"55.8853130342029";"Клязьминская улица";"Северный административный округ";"Дмитровский район";"А194; А665; А200; А191";"Учебный центр";"в центр";"да";"ГУП «Мосгортранс»";"активна";"1716027";"{type=Point, coordinates=[37.5214749038455, 55.8853126667618]}";
"133";"«Школа им. Марш. Говорова», Смольная улица (от центра) (1)";"37.4821076982071";"55.8611127875866";"Смольная улица";"Северный административный округ";"район Ховрино";"А90";"Школа им. Марш. Говорова";"от центра";"да";"ГУП «Мосгортранс»";"активна";"1716028";"{type=Point, coordinates=[37.482107729663, 55.8611124201725]}";
"134";"«Смольная ул., 45», Смольная улица (от центра)";"37.4797544139989";"55.863042743915";"Смольная улица";"Северный административный округ";"район Ховрино";"А90";"Смольная ул., 45";"от центра";"да";"ГУП «Мосгортранс»";"активна";"1716029";"{type=Point, coordinates=[37.4797544455228, 55.8630423762011]}";
"178";"«Муз. школа», Бескудниковский бульвар (от центра)";"37.5430155109012";"55.8736168368713";"Бескудниковский бульвар";"Северный административный округ";"Бескудниковский район";"А114; А154; А167; А206к; АМ10";"Муз. школа";"от центра";"да";"ГУП «Мосгортранс»";"активна";"1716030";"{type=Point, coordinates=[37.5430155414757, 55.8736164692226]}";
"179";"«Ин-т Микрохирургии глаза», Бескудниковский бульвар (от центра)";"37.5367108345284";"55.8736140366593";"Бескудниковский бульвар";"Северный административный округ";"Бескудниковский район";"А114; А154; А167; А206к; АМ10";"Ин-т Микрохирургии глаза";"от центра";"да";"ГУП «Мосгортранс»";"активна";"1716031";"{type=Point, coordinates=[37.5367108657452, 55.8736136691527]}";
"180";"«Коровинское ш.», Коровинское шоссе (от центра)";"37.5178041013983";"55.8834613918762";"Коровинское шоссе";"Северный административный округ";"Дмитровский район";"А799; А200; А656";"Коровинское ш.";"от центра";"да";"ГУП «Мосгортранс»";"активна";"1716032";"{type=Point, coordinates=[37.5178041316744, 55.8834610241139]}";
"169";"«К/т Комсомолец», Дмитровское шоссе (от центра) (3)";"37.5702311378001";"55.8417040138935";"Дмитровское шоссе";"Северный административный округ";"Тимирязевский район";"А215К; А179; А656; А149; А994; А466; А215; А63; А191; А591; А170; АТ47; А114; А82; Тб56; Тб78; А692";"К/т Комсомолец";"от центра";"нет";"";"активна";"1716033";"{type=Point, coordinates=[37.5702311686691, 55.841703646052]}";
"170";"«Нижн. Лихоборы», Дмитровское шоссе (от центра) (1)";"37.5682989827938";"55.846796276683";"Дмитровское шоссе";"Северный административный округ";"Тимирязевский район";"А149; А179; А215К; А994; А466; А215; А63; А191; А170; А114; А656; АТ47; Тб56; Тб78";"Нижн. Лихоборы";"от центра";"нет";"";"активна";"1716034";"{type=Point, coordinates=[37.5682990136814, 55.8467959088739]}";
"171";"«7-й автобусный парк», Дмитровское шоссе (от центра) (2)";"37.5654467839131";"55.8517679378189";"Дмитровское шоссе";"Северный административный округ";"Бескудниковский район";"А114; А149; А154; А167; А170; А677; А994; А466; А206к; А677К; АМ10";"7-й автобусный парк";"от центра";"да";"ГУП «Мосгортранс»";"активна";"1716035";"{type=Point, coordinates=[37.56544681476, 55.8517675700439]}";
"172";"«Торговый центр», Бескудниковский бульвар (от центра)";"37.56175314508";"55.8627842309476";"Бескудниковский бульвар";"Северный административный округ";"Бескудниковский район";"А114; А154; А167; А206к; АМ10";"Торговый центр";"от центра";"да";"ГУП «Мосгортранс»";"активна";"1716036";"{type=Point, coordinates=[37.5617531759124, 55.8627838629905]}";
"173";"«Бескудниковский пер.», Бескудниковский бульвар (от центра)";"37.560289784424";"55.8646302023021";"Бескудниковский бульвар";"Северный административный округ";"Бескудниковский район";"А114; А154; А167; А206к; АМ10";"Бескудниковский пер.";"от центра";"да";"ГУП «Мосгортранс»";"активна";"1716037";"{type=Point, coordinates=[37.560289814935, 55.8646298343772]}";
"174";"«Рогачевский пер.», Бескудниковский бульвар (от центра)";"37.5569337379159";"55.8689619273997";"Бескудниковский бульвар";"Северный административный округ";"Бескудниковский район";"А114; А154; А167; А206к; АМ10";"Рогачевский пер.";"от центра";"да";"ГУП «Мосгортранс»";"активна";"1716038";"{type=Point, coordinates=[37.5569337688245, 55.8689615596086]}";
"175";"«Школа № 656», Бескудниковский бульвар (от центра)";"37.5541997539643";"55.8724563988289";"Бескудниковский бульвар";"Северный административный округ";"Бескудниковский район";"А114; А154; А167; А206к; АМ10";"Школа № 656";"от центра";"да";"ГУП «Мосгортранс»";"активна";"1716039";"{type=Point, coordinates=[37.5541997849227, 55.8724560312387]}";
"176";"«Аптека», Бескудниковский бульвар (от центра)";"37.5508542715952";"55.873777817715";"Бескудниковский бульвар";"Северный административный округ";"Бескудниковский район";"А114; А154; А167; А206к; АМ10";"Аптека";"от центра";"да";"ГУП «Мосгортранс»";"активна";"1716040";"{type=Point, coordinates=[37.5508543025387, 55.8737774499723]}";
"177";"«Бескудниково», Бескудниковский бульвар (от центра)";"37.5459457504385";"55.8738233312567";"Бескудниковский бульвар";"Северный административный округ";"Бескудниковский район";"А114; А154; А167; А206к; АМ10";"Бескудниково";"от центра";"да";"ГУП «Мосгортранс»";"активна";"1716041";"{type=Point, coordinates=[37.5459457812205, 55.873822963567]}";
"181";"«Кронштадтский бульв.», Кронштадтский бульвар (от центра)";"37.4967923671733";"55.8429612177685";"Кронштадтский бульвар";"Северный административный округ";"Головинский район";"А123; А65; А65К; А698; А72";"Кронштадтский бульв.";"от центра";"да";"ГУП «Мосгортранс»";"активна";"1716042";"{type=Point, coordinates=[37.4967923988826, 55.842960850041]}";
"182";"«Школа № 157», Кронштадтский бульвар (от центра)";"37.500148331528";"55.8437890235978";"Кронштадтский бульвар";"Северный административный округ";"Головинский район";"А123; А65; А65К; А72";"Школа № 157";"от центра";"да";"ГУП «Мосгортранс»";"активна";"1716043";"{type=Point, coordinates=[37.5001483617109, 55.8437886560284]}";
"183";"«Нарвская ул. - Университет Гражданской Авиации», Нарвская улица (от центра)";"37.5022137778571";"55.8438588801363";"Нарвская улица";"Северный административный округ";"Головинский район";"А123";"Нарвская ул. - Университет Гражданской Авиации";"от центра";"да";"ГУП «Мосгортранс»";"активна";"1716044";"{type=Point, coordinates=[37.5022138086996, 55.8438585123617]}";
"93";"«Колледж № 7», Клязьминская улица (в центр)";"37.5187814445193";"55.8834930631652";"Клязьминская улица";"Северный административный округ";"Дмитровский район";"А194; А665";"Колледж № 7";"в центр";"да";"ГУП «Мосгортранс»";"активна";"1716045";"{type=Point, coordinates=[37.5187814753199, 55.8834926958144]}";
"94";"«Ангарская ул.», Ангарская улица (в центр)";"37.5202980118174";"55.8776300072357";"Ангарская улица";"Северный административный округ";"район Западное Дегунино";"А665";"Ангарская ул.";"в центр";"нет";"";"активна";"1716046";"{type=Point, coordinates=[37.5202980425697, 55.8776296396678]}";
"95";"«Мкр. Западное Дегунино», Ангарская улица (в центр)";"37.517032084089";"55.8760453352362";"Ангарская улица";"Северный административный округ";"район Западное Дегунино";"А665";"Мкр. Западное Дегунино";"в центр";"да";"ГУП «Мосгортранс»";"активна";"1716047";"{type=Point, coordinates=[37.5170321150346, 55.8760449678828]}";
"96";"«Весенняя ул.», Ангарская улица (в центр)";"37.5145408118072";"55.8739824216734";"Ангарская улица";"Северный административный округ";"район Западное Дегунино";"А665";"Весенняя ул.";"в центр";"да";"ГУП «Мосгортранс»";"активна";"1716048";"{type=Point, coordinates=[37.5145408424754, 55.8739820541116]}";
"97";"«Ст. Ховрино (выс.)», Ангарская улица (в центр)";"37.511099466715";"55.8701407746291";"Ангарская улица";"Северный административный округ";"район Западное Дегунино";"А665; А748; А215К; А154";"Ст. Ховрино (выс.)";"в центр";"да";"ГУП «Мосгортранс»";"активна";"1716049";"{type=Point, coordinates=[37.5110994973212, 55.8701404069783]}";
"98";"«Онкологический диспансер», Старопетровский проезд (от центра)";"37.5026347439443";"55.8232670308162";"Старопетровский проезд";"Северный административный округ";"Войковский район";"А114; А90; А621";"Онкологический диспансер";"от центра";"да";"ГУП «Мосгортранс»";"активна";"1716050";"{type=Point, coordinates=[37.5026347744108, 55.8232666629194]}";
"99";"«Старопетровский пр.», Старопетровский проезд (от центра)";"37.5087804476288";"55.8246761077119";"Старопетровский проезд";"Северный административный округ";"Войковский район";"А114; А90; А621";"Старопетровский пр.";"от центра";"да";"ГУП «Мосгортранс»";"активна";"1716051";"{type=Point, coordinates=[37.508780478033, 55.8246757398319]}";
"100";"«Ф-ка игрушек», улица Клары Цеткин (от центра)";"37.5116452156419";"55.8298553401345";"улица Клары Цеткин";"Северный административный округ";"район Коптево";"А90; А621";"Ф-ка игрушек";"от центра";"да";"ГУП «Мосгортранс»";"активна";"1716052";"{type=Point, coordinates=[37.5116452462148, 55.8298549722066]}";
"102";"«Диспансер», Михалковская улица (в центр)";"37.5057413046955";"55.8371856463529";"Михалковская улица";"Северный административный округ";"район Коптево";"А123; А621; А90";"Диспансер";"в центр";"да";"ГУП «Мосгортранс»";"активна";"1716054";"{type=Point, coordinates=[37.5057413357104, 55.8371852784487]}";
"103";"«Электромеханический колледж», Михалковская улица (в центр)";"37.5124764000476";"55.8376862208338";"Михалковская улица";"Северный административный округ";"район Коптево";"А123; А621; А90";"Электромеханический колледж";"в центр";"да";"ГУП «Мосгортранс»";"активна";"1716055";"{type=Point, coordinates=[37.5124764303916, 55.8376858529151]}";
"104";"«Ф-ка им. Петра Алексеева», Михалковская улица (в центр)";"37.5164310585936";"55.8395644250952";"Михалковская улица";"Северный административный округ";"район Коптево";"А123; А621; А90";"Ф-ка им. Петра Алексеева";"в центр";"да";"ГУП «Мосгортранс»";"активна";"1716056";"{type=Point, coordinates=[37.516431089053, 55.8395640574813]}";
"90";"«Комплекс Метростроя», Коровинское шоссе (от центра)";"37.5446902981557";"55.8655809049622";"Коровинское шоссе";"Северный административный округ";"Бескудниковский район";"А194; А215К; А656; А191; А591; Тб56";"Комплекс Метростроя";"от центра";"да";"ГУП «Мосгортранс»";"активна";"1716058";"{type=Point, coordinates=[37.5446903288525, 55.8655805372845]}";
"91";"«Селигерская ул.», Коровинское шоссе (от центра)";"37.5413374405136";"55.8671809899768";"Коровинское шоссе";"Северный административный округ";"Бескудниковский район";"А194; А672; А215К; А656; А191; А591; Тб56";"Селигерская ул.";"от центра";"да";"ГУП «Мосгортранс»";"активна";"1716059";"{type=Point, coordinates=[37.5413374712519, 55.8671806223111]}";
"92";"«Ин-т Микрохирургии глаза», Коровинское шоссе (от центра) (1)";"37.5358125469416";"55.8697517610088";"Коровинское шоссе";"Северный административный округ";"Бескудниковский район";"А194; А672; А215К; А656; А191; А591; Тб56";"Ин-т Микрохирургии глаза";"от центра";"да";"ГУП «Мосгортранс»";"активна";"1716060";"{type=Point, coordinates=[37.5358125777482, 55.8697513933628]}";
"105";"«Локомотивное депо Лихоборы», Михалковская улица (в центр)";"37.5193433155607";"55.8412444398512";"Михалковская улица";"Северный административный округ";"район Коптево";"А123; А621; А90";"Локомотивное депо Лихоборы";"в центр";"да";"ГУП «Мосгортранс»";"активна";"1716061";"{type=Point, coordinates=[37.5193433462797, 55.8412440719301]}";
"106";"«Онежская ул. - Колледж», Онежская улица (от центра)";"37.5217720772629";"55.8452143844696";"Онежская улица";"Северный административный округ";"Головинский район";"А123; А22; А621; А72; А801; А90";"Онежская ул. - Колледж";"от центра";"да";"ГУП «Мосгортранс»";"активна";"1716062";"{type=Point, coordinates=[37.5217721077799, 55.8452140166249]}";
"107";"«3-й Лихачевский пер.», Онежская улица (от центра)";"37.520951430976";"55.8490882659284";"Онежская улица";"Северный административный округ";"Головинский район";"А801; А72; А90; А621";"3-й Лихачевский пер.";"от центра";"да";"ГУП «Мосгортранс»";"активна";"1716063";"{type=Point, coordinates=[37.5209514617635, 55.849087898018]}";
"108";"«Онежская ул., 19», Онежская улица (от центра)";"37.519183286513";"55.8522250014372";"Онежская улица";"Северный административный округ";"Головинский район";"А801; А72; А90; А621";"Онежская ул., 19";"от центра";"да";"ГУП «Мосгортранс»";"активна";"1716064";"{type=Point, coordinates=[37.5191833168275, 55.8522246336302]}";
"109";"«Солнечногорская ул.», Онежская улица (от центра)";"37.5131383302305";"55.8564533662007";"Онежская улица";"Северный административный округ";"Головинский район";"А621; А65; А65К; А801; А90";"Солнечногорская ул.";"от центра";"да";"ГУП «Мосгортранс»";"активна";"1716065";"{type=Point, coordinates=[37.5131383612158, 55.8564529986735]}";
"110";"«Флотская ул.», Онежская улица (от центра) (1)";"37.5081827565365";"55.8600492172161";"Онежская улица";"Северный административный округ";"Головинский район";"А65К; А801; А90; А65";"Флотская ул.";"от центра";"да";"ГУП «Мосгортранс»";"активна";"1716066";"{type=Point, coordinates=[37.5081827867594, 55.8600488494396]}";
"111";"«Фестивальная ул.», Петрозаводская улица (от центра)";"37.5040721505893";"55.8630525696102";"Петрозаводская улица";"Северный административный округ";"район Ховрино";"А233; А801; А90";"Фестивальная ул.";"от центра";"да";"ГУП «Мосгортранс»";"активна";"1716067";"{type=Point, coordinates=[37.5040721816317, 55.8630522017955]}";
"112";"«М-н Книги», Петрозаводская улица (от центра)";"37.5009721220697";"55.864467142008";"Петрозаводская улица";"Северный административный округ";"район Ховрино";"А233; А801; А90";"М-н Книги";"от центра";"да";"ГУП «Мосгортранс»";"активна";"1716068";"{type=Point, coordinates=[37.5009721530492, 55.8644667741716]}";
"113";"«Аптека», Петрозаводская улица (от центра)";"37.4968319291972";"55.8659123522925";"Петрозаводская улица";"Северный административный округ";"район Ховрино";"А233; А801; А90";"Аптека";"от центра";"да";"ГУП «Мосгортранс»";"активна";"1716069";"{type=Point, coordinates=[37.4968319607345, 55.8659119845276]}";
"114";"«Петрозаводская ул.», Петрозаводская улица (от центра) (1)";"37.4904558035892";"55.8670921198531";"Петрозаводская улица";"Северный административный округ";"район Ховрино";"А801; Тб58; А90";"Петрозаводская ул.";"от центра";"да";"ГУП «Мосгортранс»";"активна";"1716070";"{type=Point, coordinates=[37.4904558356561, 55.8670917520959]}";
"115";"«15-й таксомоторный парк», Беломорская улица (в центр)";"37.4838596206184";"55.8669910505108";"Беломорская улица";"Северный административный округ";"район Ховрино";"Тб58; А90";"15-й таксомоторный парк";"в центр";"да";"ГУП «Мосгортранс»";"активна";"1716071";"{type=Point, coordinates=[37.483859651945, 55.866990682849]}";
"116";"«Экономический университет», Смольная улица (в центр)";"37.477138420488";"55.8652343788613";"Смольная улица";"Северный административный округ";"район Левобережный";"А138; А173; А199; А270; А400; А739; А851; А90; АН1; Тб58";"Экономический университет";"в центр";"да";"ГУП «Мосгортранс»";"активна";"1716072";"{type=Point, coordinates=[37.4771384526793, 55.8652340114702]}";
"117";"«Смольная ул., 45», Смольная улица (в центр)";"37.4794854569158";"55.8630182665388";"Смольная улица";"Северный административный округ";"район Левобережный";"А173; А199; А851; А90; Тб58";"Смольная ул., 45";"в центр";"да";"ГУП «Мосгортранс»";"активна";"1716073";"{type=Point, coordinates=[37.4794854890358, 55.8630178991187]}";
"118";"«Школа им. Марш. Говорова», Смольная улица (в центр)";"37.4809875443546";"55.8617429692911";"Смольная улица";"Северный административный округ";"район Левобережный";"А90; Тб58; А199; А173; А270; А739; А851";"Школа им. Марш. Говорова";"в центр";"да";"ГУП «Мосгортранс»";"активна";"1716074";"{type=Point, coordinates=[37.4809875763504, 55.8617426018685]}";
"119";"«Смольная ул.», Фестивальная улица (в центр)";"37.4847147088412";"55.8580903271113";"Фестивальная улица";"Северный административный округ";"район Левобережный";"А173; А199; А233; А284; А801; А851; А857; А90; Тб58";"Смольная ул.";"в центр";"да";"ГУП «Мосгортранс»";"активна";"1716075";"{type=Point, coordinates=[37.4847147402505, 55.8580899593783]}";
"120";"«Автокомбинат № 3», 3-й Нижнелихоборский проезд (в центр)";"37.5614278921714";"55.8447867783262";"3-й Нижнелихоборский проезд";"Северный административный округ";"Тимирязевский район";"А123; А204; А114; А179";"Автокомбинат № 3";"в центр";"да";"ГУП «Мосгортранс»";"активна";"1716076";"{type=Point, coordinates=[37.5614279228612, 55.8447864107227]}";
"121";"«Учебный центр», Клязьминская улица (от центра)";"37.5223451305783";"55.8856665614637";"Клязьминская улица";"Северный административный округ";"Дмитровский район";"А194; А665; А200";"Учебный центр";"от центра";"да";"ГУП «Мосгортранс»";"активна";"1716077";"{type=Point, coordinates=[37.5223451611263, 55.8856661939976]}";
"122";"«Клязьминская ул.», Ангарская улица (в центр)";"37.5252221752591";"55.8864090309597";"Ангарская улица";"Северный административный округ";"Дмитровский район";"А194; А672";"Клязьминская ул.";"в центр";"да";"ГУП «Мосгортранс»";"активна";"1716078";"{type=Point, coordinates=[37.5252222066329, 55.8864086635106]}";
"123";"«Храм Матроны Московской», Ангарская улица (в центр)";"37.52952965";"55.88310078";"Ангарская улица";"Северный административный округ";"Дмитровский район";"А194; А672; А428; А191";"Храм Матроны Московской";"в центр";"да";"ГУП «Мосгортранс»";"активна";"1716079";"{type=Point, coordinates=[37.5295296804657, 55.883100412304]}";
"124";"«Ангарская ул., 49», Ангарская улица (в центр)";"37.5290153264348";"55.8811076152555";"Ангарская улица";"Северный административный округ";"Дмитровский район";"А194; А672";"Ангарская ул., 49";"в центр";"да";"ГУП «Мосгортранс»";"активна";"1716080";"{type=Point, coordinates=[37.5290153572381, 55.8811072475937]}";
"125";"«Ангарская ул.», Коровинское шоссе (в центр)";"37.5230687444699";"55.8779829143746";"Коровинское шоссе";"Северный административный округ";"район Западное Дегунино";"А194; А672; А799; А656; А191; А591; А114; Тб56";"Ангарская ул.";"в центр";"да";"ГУП «Мосгортранс»";"активна";"1716081";"{type=Point, coordinates=[37.5230687750321, 55.877982546788]}";
"157";"«Аптека», Бескудниковский бульвар (в центр)";"37.5523427115478";"55.8732411183267";"Бескудниковский бульвар";"Северный административный округ";"Бескудниковский район";"А114; А154; А167; А206к; АМ10";"Аптека";"в центр";"да";"ГУП «Мосгортранс»";"активна";"1716082";"{type=Point, coordinates=[37.5523427417761, 55.8732407504465]}";
"158";"«Школа № 656», Бескудниковский бульвар (в центр)";"37.5548532996209";"55.8712169704392";"Бескудниковский бульвар";"Северный административный округ";"Бескудниковский район";"А114; А154; А167; А206к; АМ10";"Школа № 656";"в центр";"да";"ГУП «Мосгортранс»";"активна";"1716083";"{type=Point, coordinates=[37.5548533299434, 55.8712166028777]}";
"159";"«Рогачевский пер.», Бескудниковский бульвар (в центр)";"37.5576641983426";"55.8675696617047";"Бескудниковский бульвар";"Северный административный округ";"Бескудниковский район";"А114; А154; А167; А206к; АМ10";"Рогачевский пер.";"в центр";"да";"ГУП «Мосгортранс»";"активна";"1716084";"{type=Point, coordinates=[37.5576642284971, 55.867569293913]}";
"160";"«Бескудниковский пер.», Бескудниковский бульвар (в центр)";"37.5604104923698";"55.8640504199728";"Бескудниковский бульвар";"Северный административный округ";"Бескудниковский район";"А114; А154; А167; Тб36; А206к; АТ47; АМ10";"Бескудниковский пер.";"в центр";"да";"ГУП «Мосгортранс»";"активна";"1716085";"{type=Point, coordinates=[37.5604105233545, 55.864050052309]}";
"161";"«Торговый центр», Бескудниковский бульвар (в центр)";"37.5618992946022";"55.8619888501994";"Бескудниковский бульвар";"Северный административный округ";"Бескудниковский район";"А114; А149; А154; А167; А466; А206к; АМ10; Тб36; АТ47";"Торговый центр";"в центр";"да";"ГУП «Мосгортранс»";"активна";"1716086";"{type=Point, coordinates=[37.5618993255487, 55.8619884824872]}";
"162";"«Роддом № 27», Коптевский бульвар (от центра)";"37.5286270021867";"55.8311460714279";"Коптевский бульвар";"Северный административный округ";"район Коптево";"А114";"Роддом № 27";"от центра";"да";"ГУП «Мосгортранс»";"активна";"1716087";"{type=Point, coordinates=[37.5286270334076, 55.8311457035747]}";
"163";"«Коптевский рынок», Коптевский бульвар (от центра)";"37.5217971533966";"55.8329619782816";"Коптевский бульвар";"Северный административный округ";"район Коптево";"А114";"Коптевский рынок";"от центра";"нет";"";"активна";"1716088";"{type=Point, coordinates=[37.5217971842273, 55.8329616105385]}";
"164";"«Коптевская ул.», Коптевская улица (в центр)";"37.5180849730622";"55.8293692710156";"Коптевская улица";"Северный административный округ";"район Коптево";"А114";"Коптевская ул.";"в центр";"да";"ГУП «Мосгортранс»";"активна";"1716089";"{type=Point, coordinates=[37.5180850033087, 55.8293689030614]}";
"165";"«Коптевская ул.», Коптевская улица (от центра)";"37.5190787001443";"55.8308229100574";"Коптевская улица";"Северный административный округ";"район Коптево";"А114";"Коптевская ул.";"от центра";"да";"ГУП «Мосгортранс»";"активна";"1716090";"{type=Point, coordinates=[37.5190787304318, 55.8308225424233]}";
"166";"«Коптевский рынок», Коптевский бульвар (в центр) (1)";"37.5211058542904";"55.8320907221489";"Коптевский бульвар";"Северный административный округ";"район Коптево";"А114";"Коптевский рынок";"в центр";"да";"ГУП «Мосгортранс»";"активна";"1716091";"{type=Point, coordinates=[37.5211058848191, 55.8320903545179]}";
"167";"«Роддом № 27», Коптевский бульвар (в центр) (1)";"37.5278342919871";"55.8302818110345";"Коптевский бульвар";"Северный административный округ";"район Коптево";"А114";"Роддом № 27";"в центр";"да";"ГУП «Мосгортранс»";"активна";"1716092";"{type=Point, coordinates=[37.527834323177, 55.8302814431236]}";
"135";"«15-й таксомоторный парк», Петрозаводская улица (в центр)";"37.486061793815";"55.866894234984";"Петрозаводская улица";"Северный административный округ";"район Ховрино";"А801; А90; Тб58";"15-й таксомоторный парк";"в центр";"да";"ГУП «Мосгортранс»";"активна";"1716093";"{type=Point, coordinates=[37.4860618250902, 55.8668938676018]}";
"136";"«Петрозаводская ул.», Петрозаводская улица (в центр)";"37.4927867997348";"55.8666611378667";"Петрозаводская улица";"Северный административный округ";"район Ховрино";"А233; А801; А90";"Петрозаводская ул.";"в центр";"да";"ГУП «Мосгортранс»";"активна";"1716094";"{type=Point, coordinates=[37.4927868316132, 55.8666607702594]}";
"137";"«Аптека», Петрозаводская улица (в центр)";"37.4966722008718";"55.865750660204";"Петрозаводская улица";"Северный административный округ";"район Ховрино";"А233; А801; А90";"Аптека";"в центр";"да";"ГУП «Мосгортранс»";"активна";"1716095";"{type=Point, coordinates=[37.4966722322468, 55.8657502926807]}";
"138";"«М-н Книги», Петрозаводская улица (в центр)";"37.5017204484062";"55.8639722610069";"Петрозаводская улица";"Северный административный округ";"район Ховрино";"А233; А801; А90";"М-н Книги";"в центр";"да";"ГУП «Мосгортранс»";"активна";"1716096";"{type=Point, coordinates=[37.501720479212, 55.8639718935131]}";
"139";"«Фестивальная ул.», Онежская улица (в центр)";"37.5057690926002";"55.8615303622627";"Онежская улица";"Северный административный округ";"район Ховрино";"А801; А90";"Фестивальная ул.";"в центр";"да";"ГУП «Мосгортранс»";"активна";"1716097";"{type=Point, coordinates=[37.5057691233447, 55.8615299947166]}";
"140";"«Флотская ул.», Онежская улица (в центр)";"37.5092153585664";"55.8590058611332";"Онежская улица";"Северный административный округ";"район Ховрино";"А801; А90";"Флотская ул.";"в центр";"да";"ГУП «Мосгортранс»";"активна";"1716098";"{type=Point, coordinates=[37.50921538933, 55.8590054932568]}";
"141";"«Солнечногорская ул.», Онежская улица (в центр)";"37.5141085320282";"55.8554505947435";"Онежская улица";"Северный административный округ";"Головинский район";"А65К; А801; А90; А621; А65";"Солнечногорская ул.";"в центр";"да";"ГУП «Мосгортранс»";"активна";"1716099";"{type=Point, coordinates=[37.5141085623551, 55.8554502270245]}";
"142";"«Онежская ул., 19», Онежская улица (в центр)";"37.5192180899088";"55.8516260039373";"Онежская улица";"Северный административный округ";"Головинский район";"А801; А72; А90; А621";"Онежская ул., 19";"в центр";"да";"ГУП «Мосгортранс»";"активна";"1716100";"{type=Point, coordinates=[37.5192181202544, 55.8516256362119]}";
"143";"«Онежская ул. - Колледж», Онежская улица (в центр)";"37.5216424289935";"55.8441392780346";"Онежская улица";"Северный административный округ";"Головинский район";"А123; А22; А621; А72; А801; А90";"Онежская ул. - Колледж";"в центр";"да";"ГУП «Мосгортранс»";"активна";"1716101";"{type=Point, coordinates=[37.5216424593264, 55.8441389103423]}";
"144";"«Локомотивное депо Лихоборы», Михалковская улица (от центра)";"37.5187655798974";"55.8413544685253";"Михалковская улица";"Северный административный округ";"Головинский район";"А123; А621; А90";"Локомотивное депо Лихоборы";"от центра";"нет";"";"активна";"1716102";"{type=Point, coordinates=[37.5187656100921, 55.8413541005959]}";
"145";"«Ф-ка им. Петра Алексеева», Михалковская улица (от центра)";"37.5158518643921";"55.8391481709507";"Михалковская улица";"Северный административный округ";"Головинский район";"А123; А621; А90";"Ф-ка им. Петра Алексеева";"от центра";"да";"ГУП «Мосгортранс»";"активна";"1716103";"{type=Point, coordinates=[37.5158518948986, 55.8391478029796]}";
"146";"«Электромеханический колледж», Михалковская улица (от центра)";"37.5132404953177";"55.8378609982452";"Михалковская улица";"Северный административный округ";"Головинский район";"А123; А90; А621";"Электромеханический колледж";"от центра";"да";"ГУП «Мосгортранс»";"активна";"1716104";"{type=Point, coordinates=[37.5132405256737, 55.8378606306469]}";
"186";"«База механизации», 4-й Лихачёвский переулок (от центра)";"37.5265335955702";"55.8506928885997";"4-й Лихачёвский переулок";"Северный административный округ";"Головинский район";"А123; А22";"База механизации";"от центра";"да";"ГУП «Мосгортранс»";"активна";"1716105";"{type=Point, coordinates=[37.5265336264833, 55.8506925209997]}";
"187";"«Лихоборская наб. - Хим-тех. з-д», Лихоборская набережная (в центр)";"37.5305591591567";"55.8527759368367";"Лихоборская набережная";"Северный административный округ";"Головинский район";"А123; А22";"Лихоборская наб. - Хим-тех. з-д";"в центр";"да";"ГУП «Мосгортранс»";"активна";"1716106";"{type=Point, coordinates=[37.5305591901309, 55.8527755689436]}";
"188";"«Автомоторная ул.», Автомоторная улица (в центр)";"37.5357404624406";"55.8497936922527";"Автомоторная улица";"Северный административный округ";"Головинский район";"А123; А22";"Автомоторная ул.";"в центр";"да";"ГУП «Мосгортранс»";"активна";"1716107";"{type=Point, coordinates=[37.5357404929621, 55.8497933246149]}";
"189";"«НАМИ (выс.)», Автомоторная улица (от центра)";"37.5417837467607";"55.8462298571439";"Автомоторная улица";"Северный административный округ";"Головинский район";"А22";"НАМИ (выс.)";"от центра";"нет";"";"активна";"1716108";"{type=Point, coordinates=[37.5417837778067, 55.8462294891475]}";
"190";"«Кадетский корпус полиции», 4-й Новомихалковский проезд (в центр)";"37.5433871043579";"55.8429090927947";"4-й Новомихалковский проезд";"Северный административный округ";"район Коптево";"А123; А87";"Кадетский корпус полиции";"в центр";"да";"ГУП «Мосгортранс»";"активна";"1716109";"{type=Point, coordinates=[37.5433871349188, 55.8429087247578]}";
"192";"«Митинская ул., 48», Митинская улица (в центр)";"37.3551012899302";"55.8494667650152";"Митинская улица";"Северо-Западный административный округ";"район Митино";"А266; А614; А741; АС3; А736; А959";"Митинская ул., 48";"в центр";"да";"ГУП «Мосгортранс»";"активна";"1716111";"{type=Point, coordinates=[37.355101321049, 55.8494663972184]}";
"193";"«4-й Новомихалковский пр. - Поликлиника № 159», 4-й Новомихалковский проезд (от центра) (1)";"37.545055749975";"55.8408164232797";"4-й Новомихалковский проезд";"Северный административный округ";"район Коптево";"А123; А87";"4-й Новомихалковский пр. - Поликлиника № 159";"от центра";"да";"ГУП «Мосгортранс»";"активна";"1716112";"{type=Point, coordinates=[37.5450557806891, 55.8408160556709]}";
"194";"«Кадетский корпус полиции», 4-й Новомихалковский проезд (от центра)";"37.5434255534113";"55.8431291821876";"4-й Новомихалковский проезд";"Северный административный округ";"район Коптево";"А123; А87";"Кадетский корпус полиции";"от центра";"да";"ГУП «Мосгортранс»";"активна";"1716113";"{type=Point, coordinates=[37.5434255837113, 55.8431288142175]}";
"195";"«НАМИ», Автомоторная улица (от центра)";"37.5409334680954";"55.8465169511806";"Автомоторная улица";"Северный административный округ";"Головинский район";"А123; А22";"НАМИ";"от центра";"нет";"";"активна";"1716114";"{type=Point, coordinates=[37.5409334990442, 55.8465165836118]}";
"196";"«Автомоторная ул.», Автомоторная улица (от центра)";"37.5358338769398";"55.8500930938666";"Автомоторная улица";"Северный административный округ";"Головинский район";"А123; А22";"Автомоторная ул.";"от центра";"да";"ГУП «Мосгортранс»";"активна";"1716115";"{type=Point, coordinates=[37.5358339078697, 55.8500927258927]}";
"197";"«Лихоборская наб. - Хим-тех. з-д», Лихоборская набережная (от центра)";"37.5304801326347";"55.8529840581617";"Лихоборская набережная";"Северный административный округ";"Головинский район";"А123; А22";"Лихоборская наб. - Хим-тех. з-д";"от центра";"да";"ГУП «Мосгортранс»";"активна";"1716116";"{type=Point, coordinates=[37.5304801635401, 55.8529836903569]}";
"198";"«База механизации», 4-й Лихачёвский переулок (в центр)";"37.5261544932762";"55.8508018668041";"4-й Лихачёвский переулок";"Северный административный округ";"Головинский район";"А123; А22";"База механизации";"в центр";"да";"ГУП «Мосгортранс»";"активна";"1716117";"{type=Point, coordinates=[37.5261545239632, 55.8508014992575]}";
"200";"«Диспансер», Нарвская улица (от центра)";"37.5047516840254";"55.8375988928166";"Нарвская улица";"Северный административный округ";"Головинский район";"А123";"Диспансер";"от центра";"да";"ГУП «Мосгортранс»";"активна";"1716118";"{type=Point, coordinates=[37.5047517148266, 55.8375985247973]}";
"201";"«Детский сад», Нарвская улица (от центра)";"37.5034043997297";"55.8420697429865";"Нарвская улица";"Северный административный округ";"Головинский район";"А123";"Детский сад";"от центра";"да";"ГУП «Мосгортранс»";"активна";"1716119";"{type=Point, coordinates=[37.5034044302076, 55.842069375427]}";
"202";"«Школа № 157», Лихоборская набережная (в центр)";"37.4991646410539";"55.8437072154745";"Лихоборская набережная";"Северный административный округ";"Головинский район";"А123; А65; А65К; А698; А72";"Школа № 157";"в центр";"да";"ГУП «Мосгортранс»";"активна";"1716120";"{type=Point, coordinates=[37.4991646713635, 55.8437068477239]}";
"203";"«Кронштадтский бульв.», Лихоборская набережная (в центр)";"37.4951004520932";"55.8426851058993";"Лихоборская набережная";"Северный административный округ";"Головинский район";"А123; А65; А72; А698; А65к";"Кронштадтский бульв.";"в центр";"да";"ГУП «Мосгортранс»";"активна";"1716121";"{type=Point, coordinates=[37.4951004840025, 55.842684738299]}";
"205";"«15-й таксомоторный парк», улица Дыбенко (от центра)";"37.4848487127769";"55.8679214471703";"улица Дыбенко";"Северный административный округ";"район Ховрино";"А739; А745; А673; А200";"15-й таксомоторный парк";"от центра";"да";"ГУП «Мосгортранс»";"активна";"1716122";"{type=Point, coordinates=[37.4848487446584, 55.8679210795166]}";
"206";"«19-й квартал», улица Дыбенко (от центра)";"37.4823025310342";"55.8775124125163";"улица Дыбенко";"Северный административный округ";"район Ховрино";"А200; А673; А851; А958";"19-й квартал";"от центра";"да";"ГУП «Мосгортранс»";"активна";"1716123";"{type=Point, coordinates=[37.4823025626086, 55.8775120450244]}";
"207";"«Интернат», Смольная улица (в центр)";"37.4687336305563";"55.8733167588928";"Смольная улица";"Северный административный округ";"район Левобережный";"А173; А65";"Интернат";"в центр";"да";"ГУП «Мосгортранс»";"активна";"1716124";"{type=Point, coordinates=[37.4687336619412, 55.8733163914731]}";
"208";"«11-й автобусный парк - Киностудия», Смольная улица (в центр)";"37.4708828348399";"55.8712563964364";"Смольная улица";"Северный административный округ";"район Левобережный";"А173";"11-й автобусный парк - Киностудия";"в центр";"да";"ГУП «Мосгортранс»";"активна";"1716125";"{type=Point, coordinates=[37.470882865957, 55.8712560286471]}";
"209";"«Смольная ул., 61», Смольная улица (в центр)";"37.4728929969972";"55.8693148057812";"Смольная улица";"Северный административный округ";"район Левобережный";"А173";"Смольная ул., 61";"в центр";"да";"ГУП «Мосгортранс»";"активна";"1716126";"{type=Point, coordinates=[37.4728930291489, 55.8693144379455]}";
"210";"«Поликлиника», Смольная улица (в центр)";"37.4757753826798";"55.8665141022938";"Смольная улица";"Северный административный округ";"район Левобережный";"А173";"Поликлиника";"в центр";"да";"ГУП «Мосгортранс»";"активна";"1716127";"{type=Point, coordinates=[37.4757754146856, 55.8665137347213]}";
"211";"«Смольная ул.», Фестивальная улица (от центра)";"37.4860735857375";"55.8582693872383";"Фестивальная улица";"Северный административный округ";"район Левобережный";"А233; А284; А801; А851; А857";"Смольная ул.";"от центра";"да";"ГУП «Мосгортранс»";"активна";"1716128";"{type=Point, coordinates=[37.4860736172522, 55.8582690195814]}";
"212";"«Фестивальная ул., 14», Фестивальная улица (от центра)";"37.4959304669121";"55.8601576451173";"Фестивальная улица";"Северный административный округ";"район Ховрино";"А233; А284; А851; А857";"Фестивальная ул., 14";"от центра";"да";"ГУП «Мосгортранс»";"активна";"1716129";"{type=Point, coordinates=[37.495930498501, 55.8601572776591]}";
"213";"«Фестивальная ул., 65», Фестивальная улица (от центра)";"37.501144823504";"55.8610258189893";"Фестивальная улица";"Северный административный округ";"район Ховрино";"А233; А284; А851; А857";"Фестивальная ул., 65";"от центра";"да";"ГУП «Мосгортранс»";"активна";"1716130";"{type=Point, coordinates=[37.5011448541295, 55.8610254511713]}";
"215";"«Фестивальная ул.», Фестивальная улица (в центр)";"37.5037324093316";"55.8619419996635";"Фестивальная улица";"Северный административный округ";"район Ховрино";"А233; А284; А851; А857";"Фестивальная ул.";"в центр";"да";"ГУП «Мосгортранс»";"активна";"1716131";"{type=Point, coordinates=[37.5037324406076, 55.8619416317496]}";
"216";"«Фестивальная ул., 14», Фестивальная улица (в центр)";"37.4953698764471";"55.8602446314283";"Фестивальная улица";"Северный административный округ";"район Ховрино";"А233; А284; А851; А857";"Фестивальная ул., 14";"в центр";"да";"ГУП «Мосгортранс»";"активна";"1716132";"{type=Point, coordinates=[37.4953699085253, 55.8602442637145]}";
"217";"«Поликлиника», Смольная улица (от центра)";"37.4762389607825";"55.8663845638955";"Смольная улица";"Северный административный округ";"район Левобережный";"А270; А173; А138";"Поликлиника";"от центра";"да";"ГУП «Мосгортранс»";"активна";"1716133";"{type=Point, coordinates=[37.4762389929696, 55.8663841962924]}";
"218";"«Смольная ул., 61», Смольная улица (от центра)";"37.4733126232478";"55.8691825290618";"Смольная улица";"Северный административный округ";"район Левобережный";"А173";"Смольная ул., 61";"от центра";"да";"ГУП «Мосгортранс»";"активна";"1716134";"{type=Point, coordinates=[37.4733126555623, 55.8691821613866]}";
"219";"«11-й автобусный парк - Киностудия», Смольная улица (от центра)";"37.4702985776831";"55.8720935567585";"Смольная улица";"Северный административный округ";"район Левобережный";"А173";"11-й автобусный парк - Киностудия";"от центра";"да";"ГУП «Мосгортранс»";"активна";"1716135";"{type=Point, coordinates=[37.4702986088916, 55.8720931894085]}";
"220";"«19-й квартал», улица Дыбенко (в центр)";"37.4822678275089";"55.8763141677891";"улица Дыбенко";"Северный административный округ";"район Ховрино";"А851; А200; А673; А958";"19-й квартал";"в центр";"да";"ГУП «Мосгортранс»";"активна";"1716136";"{type=Point, coordinates=[37.4822678588903, 55.8763138001328]}";
"221";"«Фестивальная ул.», Фестивальная улица (от центра)";"37.5063611672079";"55.8626610799642";"Фестивальная улица";"Северный административный округ";"Головинский район";"А284; А65К; А851; А857; А65";"Фестивальная ул.";"от центра";"да";"ГУП «Мосгортранс»";"активна";"1716137";"{type=Point, coordinates=[37.5063611975225, 55.8626607124104]}";
"266";"«Сенежская ул. - Диабетический центр», Флотская улица (от центра)";"37.5140436862616";"55.8608308358763";"Флотская улица";"Северный административный округ";"Головинский район";"А70";"Сенежская ул. - Диабетический центр";"от центра";"да";"ГУП «Мосгортранс»";"активна";"1716138";"{type=Point, coordinates=[37.5140437174791, 55.8608304683356]}";
"267";"«Солнечногорская ул.», Солнечногорская улица (в центр)";"37.5140662932854";"55.856472127262";"Солнечногорская улица";"Северный административный округ";"Головинский район";"А65К; А698; А70; А65";"Солнечногорская ул.";"в центр";"да";"ГУП «Мосгортранс»";"активна";"1716139";"{type=Point, coordinates=[37.514066324472, 55.8564717597937]}";
"268";"«Флотская ул.», Флотская улица (в центр)";"37.5086495567051";"55.8569222548182";"Флотская улица";"Северный административный округ";"район Ховрино";"А698; А70; А621";"Флотская ул.";"в центр";"да";"ГУП «Мосгортранс»";"активна";"1716140";"{type=Point, coordinates=[37.5086495872776, 55.8569218873461]}";
"224";"«Зеленоградская ул., 21», Зеленоградская улица (от центра)";"37.4988821138627";"55.8729338774012";"Зеленоградская улица";"Северный административный округ";"район Ховрино";"А851; А65";"Зеленоградская ул., 21";"от центра";"да";"ГУП «Мосгортранс»";"активна";"1716143";"{type=Point, coordinates=[37.4988821442999, 55.8729335097074]}";
"225";"«Универмаг», Зеленоградская улица (от центра)";"37.4949138331776";"55.8750206979868";"Зеленоградская улица";"Северный административный округ";"район Ховрино";"А851; А65";"Универмаг";"от центра";"да";"ГУП «Мосгортранс»";"активна";"1716144";"{type=Point, coordinates=[37.4949138645059, 55.875020330371]}";
"226";"«Зеленоградская ул., 39», Зеленоградская улица (от центра)";"37.4886034703724";"55.8775767900413";"Зеленоградская улица";"Северный административный округ";"район Ховрино";"А851; А65";"Зеленоградская ул., 39";"от центра";"да";"ГУП «Мосгортранс»";"активна";"1716145";"{type=Point, coordinates=[37.4886035025033, 55.8775764225767]}";
"227";"«Зеленоградская ул., 39», Зеленоградская улица (в центр)";"37.4889571135117";"55.8771973954394";"Зеленоградская улица";"Северный административный округ";"район Ховрино";"А851; А65";"Зеленоградская ул., 39";"в центр";"да";"ГУП «Мосгортранс»";"активна";"1716146";"{type=Point, coordinates=[37.4889571449519, 55.8771970276809]}";
"228";"«Универмаг», Зеленоградская улица (в центр)";"37.4958725732976";"55.8744278791865";"Зеленоградская улица";"Северный административный округ";"район Ховрино";"А745; А65; А65к";"Универмаг";"в центр";"да";"ГУП «Мосгортранс»";"активна";"1716147";"{type=Point, coordinates=[37.4958726048213, 55.8744275116788]}";
"229";"«Зеленоградская ул., 21», Зеленоградская улица (в центр)";"37.4996113783739";"55.872343973295";"Зеленоградская улица";"Северный административный округ";"район Ховрино";"А65; А65к; А745";"Зеленоградская ул., 21";"в центр";"да";"ГУП «Мосгортранс»";"активна";"1716148";"{type=Point, coordinates=[37.4996114092625, 55.8723436054782]}";
"231";"«Б-ца - Библиотека им. Короленко», Фестивальная улица (в центр)";"37.5080396096378";"55.8638025525586";"Фестивальная улица";"Северный административный округ";"район Ховрино";"А284; А851; А857";"Б-ца - Библиотека им. Короленко";"в центр";"да";"ГУП «Мосгортранс»";"активна";"1716150";"{type=Point, coordinates=[37.5080396402354, 55.8638021849427]}";
"232";"«Фестивальная ул., 65», Фестивальная улица (в центр)";"37.4998306782092";"55.8609769135761";"Фестивальная улица";"Северный административный округ";"район Ховрино";"А233; А284; А851; А857";"Фестивальная ул., 65";"в центр";"да";"ГУП «Мосгортранс»";"активна";"1716151";"{type=Point, coordinates=[37.4998307085859, 55.860976545872]}";
"235";"«1-й Пехотный пер.», улица Академика Курчатова (в центр)";"37.4767366271777";"55.8054496514526";"улица Академика Курчатова";"Северо-Западный административный округ";"район Щукино";"А800; А105";"1-й Пехотный пер.";"в центр";"да";"ГУП «Мосгортранс»";"активна";"1716152";"{type=Point, coordinates=[37.476736658556, 55.8054492833379]}";
"236";"«Сосновая ул.», Сосновая улица (в центр)";"37.4796426463643";"55.8067685916024";"Сосновая улица";"Северо-Западный административный округ";"район Щукино";"А800; А105";"Сосновая ул.";"в центр";"да";"ГУП «Мосгортранс»";"активна";"1716153";"{type=Point, coordinates=[37.4796426778838, 55.8067682237263]}";
"237";"«Детский сад», Пехотная улица (от центра)";"37.4840605880153";"55.8064119726852";"Пехотная улица";"Северо-Западный административный округ";"район Щукино";"А800; А105";"Детский сад";"от центра";"да";"ГУП «Мосгортранс»";"активна";"1716154";"{type=Point, coordinates=[37.4840606192822, 55.8064116049086]}";
"238";"«1-й Волоколамский пр.», 1-й Волоколамский проезд (в центр)";"37.4900746222537";"55.8033301566166";"1-й Волоколамский проезд";"Северо-Западный административный округ";"район Щукино";"А800; А105";"1-й Волоколамский пр.";"в центр";"да";"ГУП «Мосгортранс»";"активна";"1716155";"{type=Point, coordinates=[37.4900746542826, 55.8033297887394]}";
"239";"«Почта», 1-й Волоколамский проезд (в центр)";"37.4920848034942";"55.8010210611005";"1-й Волоколамский проезд";"Северо-Западный административный округ";"район Щукино";"А800; А105";"Почта";"в центр";"да";"ГУП «Мосгортранс»";"активна";"1716156";"{type=Point, coordinates=[37.4920848349239, 55.8010206932603]}";
"241";"«2-й Балтийский пер.», улица Усиевича (в центр)";"37.5231430958252";"55.8066847660424";"улица Усиевича";"Северный административный округ";"район Аэропорт";"А110; А105К; А105КФ";"2-й Балтийский пер.";"в центр";"да";"ГУП «Мосгортранс»";"активна";"1716158";"{type=Point, coordinates=[37.5231431263388, 55.8066843978988]}";
"242";"«Ленинградский рынок - К/т Баку», улица Усиевича (в центр)";"37.5281614986785";"55.8053657436585";"улица Усиевича";"Северный административный округ";"район Аэропорт";"А110; А105К; А105КФ";"Ленинградский рынок - К/т Баку";"в центр";"да";"ГУП «Мосгортранс»";"активна";"1716159";"{type=Point, coordinates=[37.5281615290738, 55.8053653754016]}";
"243";"«4-я ул. 8-го Марта», Планетная улица (в центр)";"37.5461806959153";"55.8022881967609";"Планетная улица";"Северный административный округ";"район Аэропорт";"А105К; А105КФ";"4-я ул. 8-го Марта";"в центр";"да";"ГУП «Мосгортранс»";"активна";"1716160";"{type=Point, coordinates=[37.5461807264596, 55.8022878286254]}";
"244";"«1-я ул. 8-го Марта», Планетная улица (в центр)";"37.5492940241128";"55.8003129199608";"Планетная улица";"Северный административный округ";"район Аэропорт";"А105К; А105КФ";"1-я ул. 8-го Марта";"в центр";"да";"ГУП «Мосгортранс»";"активна";"1716161";"{type=Point, coordinates=[37.5492940545331, 55.8003125517788]}";
"269";"«Поликлиника», Флотская улица (в центр)";"37.5019076541607";"55.8544637613581";"Флотская улица";"Северный административный округ";"район Ховрино";"А698; А70; А621";"Поликлиника";"в центр";"да";"ГУП «Мосгортранс»";"активна";"1716162";"{type=Point, coordinates=[37.5019076844768, 55.8544633936699]}";
"270";"«Смольная ул.», Флотская улица (в центр)";"37.494693304475";"55.8518274522504";"Флотская улица";"Северный административный округ";"район Левобережный";"А698; А70; А621";"Смольная ул.";"в центр";"да";"ГУП «Мосгортранс»";"активна";"1716163";"{type=Point, coordinates=[37.4946933361595, 55.8518270844292]}";
"271";"«Пулковская ул.», Авангардная улица (в центр) (1)";"37.4897766952915";"55.845467401082";"Авангардная улица";"Северный административный округ";"Головинский район";"А70; А621";"Пулковская ул.";"в центр";"да";"ГУП «Мосгортранс»";"активна";"1716164";"{type=Point, coordinates=[37.4897767272529, 55.8454670334245]}";
"245";"«Петровско-Разумовская аллея», Петровско-Разумовская аллея (в центр) (1)";"37.5590197014589";"55.7950049362714";"Петровско-Разумовская аллея";"Северный административный округ";"район Аэропорт";"А105К; А105КФ; А22; А84; А84А; А84К";"Петровско-Разумовская аллея";"в центр";"да";"ГУП «Мосгортранс»";"активна";"1716165";"{type=Point, coordinates=[37.5590197322151, 55.7950045679284]}";
"246";"«1-я ул. 8-го Марта», Планетная улица (от центра) (1)";"37.5482194994919";"55.8012484958159";"Планетная улица";"Северный административный округ";"район Аэропорт";"А105; А105К; А105КФ";"1-я ул. 8-го Марта";"от центра";"да";"ГУП «Мосгортранс»";"активна";"1716166";"{type=Point, coordinates=[37.5482195302279, 55.8012481279162]}";
"247";"«4-я ул. 8-го Марта», Планетная улица (от центра)";"37.5451123252368";"55.8031817215113";"Планетная улица";"Северный административный округ";"район Аэропорт";"А105; А105К; А105КФ";"4-я ул. 8-го Марта";"от центра";"да";"ГУП «Мосгортранс»";"активна";"1716167";"{type=Point, coordinates=[37.5451123556139, 55.8031813532635]}";
"248";"«Ленинградский рынок - К/т Баку», Часовая улица (от центра)";"37.529982230778";"55.8086170675869";"Часовая улица";"Северный административный округ";"район Аэропорт";"А110; А105; А105к";"Ленинградский рынок - К/т Баку";"от центра";"да";"ГУП «Мосгортранс»";"активна";"1716168";"{type=Point, coordinates=[37.529982261428, 55.8086166995742]}";
"249";"«Университет Путей сообщения», Часовая улица (от центра)";"37.5266331636603";"55.8094801817354";"Часовая улица";"Северный административный округ";"район Аэропорт";"А110; А105; А105К; А105КФ";"Университет Путей сообщения";"от центра";"да";"ГУП «Мосгортранс»";"активна";"1716169";"{type=Point, coordinates=[37.5266331947635, 55.8094798138886]}";
"250";"«1-й Балтийский пер.», Часовая улица (от центра)";"37.5201993454306";"55.8111611433002";"Часовая улица";"Северный административный округ";"район Аэропорт";"А110; А105; А105К; А105КФ";"1-й Балтийский пер.";"от центра";"да";"ГУП «Мосгортранс»";"активна";"1716170";"{type=Point, coordinates=[37.5201993759857, 55.8111607752175]}";
"252";"«Почта», 1-й Волоколамский проезд (от центра)";"37.4920024797484";"55.8014200248261";"1-й Волоколамский проезд";"Северо-Западный административный округ";"район Щукино";"А800; А105";"Почта";"от центра";"да";"ГУП «Мосгортранс»";"активна";"1716172";"{type=Point, coordinates=[37.4920025115207, 55.8014196567552]}";
"253";"«1-й Волоколамский пр.», 1-й Волоколамский проезд (от центра)";"37.4907401680298";"55.8028788432047";"1-й Волоколамский проезд";"Северо-Западный административный округ";"район Щукино";"А800; А105";"1-й Волоколамский пр.";"от центра";"да";"ГУП «Мосгортранс»";"активна";"1716173";"{type=Point, coordinates=[37.4907401998642, 55.8028784750577]}";
"254";"«2-й Пехотный пер.», 2-й Пехотный переулок (от центра)";"37.4889896273636";"55.8044493240079";"2-й Пехотный переулок";"Северо-Западный административный округ";"район Щукино";"А800; А105";"2-й Пехотный пер.";"от центра";"да";"ГУП «Мосгортранс»";"активна";"1716174";"{type=Point, coordinates=[37.4889896592717, 55.8044489560784]}";
"255";"«52-я гор. б-ца», Пехотная улица (в центр)";"37.484300469324";"55.8057093101339";"Пехотная улица";"Северо-Западный административный округ";"район Щукино";"А800; А105";"52-я гор. б-ца";"в центр";"нет";"";"активна";"1716175";"{type=Point, coordinates=[37.4843005008959, 55.8057089422503]}";
"256";"«Детский сад», Сосновая улица (от центра)";"37.4830558422624";"55.8070026605766";"Сосновая улица";"Северо-Западный административный округ";"район Щукино";"А800; А105";"Детский сад";"от центра";"нет";"";"активна";"1716176";"{type=Point, coordinates=[37.4830558734281, 55.8070022927381]}";
"257";"«Сосновая ул.», Сосновая улица (от центра)";"37.4784579335312";"55.8068760210838";"Сосновая улица";"Северо-Западный административный округ";"район Щукино";"А105; А800";"Сосновая ул.";"от центра";"да";"ГУП «Мосгортранс»";"активна";"1716177";"{type=Point, coordinates=[37.4784579653458, 55.8068756530937]}";
"258";"«1-й Пехотный пер.», улица Академика Курчатова (от центра)";"37.4765179362106";"55.8050920695354";"улица Академика Курчатова";"Северо-Западный административный округ";"район Щукино";"А800; А105";"1-й Пехотный пер.";"от центра";"да";"ГУП «Мосгортранс»";"активна";"1716178";"{type=Point, coordinates=[37.4765179681964, 55.8050917017859]}";
"259";"«Пулковская ул.», Авангардная улица (от центра)";"37.4895529761352";"55.8462039628014";"Авангардная улица";"Северный административный округ";"Головинский район";"А70; А621";"Пулковская ул.";"от центра";"да";"ГУП «Мосгортранс»";"активна";"1716179";"{type=Point, coordinates=[37.4895530081359, 55.846203594937]}";
"260";"«Флотская ул., 36», Флотская улица (от центра)";"37.4923329724147";"55.8508005085919";"Флотская улица";"Северный административный округ";"Головинский район";"А70; А621";"Флотская ул., 36";"от центра";"да";"ГУП «Мосгортранс»";"активна";"1716180";"{type=Point, coordinates=[37.4923330036182, 55.850800140781]}";
"261";"«Поликлиника», Флотская улица (от центра)";"37.5014380891796";"55.8541053230116";"Флотская улица";"Северный административный округ";"Головинский район";"А698; А70; А621";"Поликлиника";"от центра";"да";"ГУП «Мосгортранс»";"активна";"1716181";"{type=Point, coordinates=[37.5014381198757, 55.8541049554976]}";
"262";"«Школа № 648», Флотская улица (от центра)";"37.503702034957";"55.8549447786981";"Флотская улица";"Северный административный округ";"Головинский район";"А698; А70; А621";"Школа № 648";"от центра";"да";"ГУП «Мосгортранс»";"активна";"1716182";"{type=Point, coordinates=[37.50370206586, 55.8549444110475]}";
"263";"«Флотская ул.», Флотская улица (от центра)";"37.5095440130033";"55.8570322354345";"Флотская улица";"Северный административный округ";"Головинский район";"А698; А70; А621";"Флотская ул.";"от центра";"да";"ГУП «Мосгортранс»";"активна";"1716183";"{type=Point, coordinates=[37.5095440433416, 55.8570318676034]}";
"264";"«Солнечногорская ул.», Солнечногорская улица (от центра)";"37.5144240690253";"55.8564940934042";"Солнечногорская улица";"Северный административный округ";"Головинский район";"А698; А70; А65";"Солнечногорская ул.";"от центра";"да";"ГУП «Мосгортранс»";"активна";"1716184";"{type=Point, coordinates=[37.5144241000837, 55.8564937255705]}";
"265";"«Сенежская ул.,1 - Торговое училище», Сенежская улица (от центра)";"37.5168738880735";"55.859587701356";"Сенежская улица";"Северный административный округ";"Головинский район";"А70";"Сенежская ул.,1 - Торговое училище";"от центра";"нет";"";"активна";"1716185";"{type=Point, coordinates=[37.5168739189899, 55.8595873334531]}";
"272";"«Ин-т Цветметавтоматика», Бескудниковский бульвар (в центр)";"37.5623099413505";"55.8580312737655";"Бескудниковский бульвар";"Северный административный округ";"Бескудниковский район";"А114; А149; А154; А167; А466; А206к; АМ10";"Ин-т Цветметавтоматика";"в центр";"да";"ГУП «Мосгортранс»";"активна";"1716186";"{type=Point, coordinates=[37.5623099723745, 55.8580309058162]}";
"273";"«Ин-т Цветметавтоматика», Бескудниковский бульвар (от центра)";"37.56239826597";"55.8574464569739";"Бескудниковский бульвар";"Северный административный округ";"Бескудниковский район";"А114; А154; А167; А206к; АМ10";"Ин-т Цветметавтоматика";"от центра";"да";"ГУП «Мосгортранс»";"активна";"1716187";"{type=Point, coordinates=[37.5623982965282, 55.8574460893061]}";
"199";"«3-й Лихачевский пер.», Онежская улица (в центр)";"37.5209057036752";"55.8483800518692";"Онежская улица";"Северный административный округ";"Головинский район";"А123; А22; А621; А72; А801; А90";"3-й Лихачевский пер.";"в центр";"да";"ГУП «Мосгортранс»";"активна";"1716188";"{type=Point, coordinates=[37.5209057339221, 55.848379683945]}";
"274";"«Нарвская ул. - Университет Гражданской Авиации», Лихоборская набережная (от центра)";"37.5028778000641";"55.8444913646569";"Лихоборская набережная";"Северный административный округ";"Головинский район";"А65К; А72; А65";"Нарвская ул. - Университет Гражданской Авиации";"от центра";"да";"ГУП «Мосгортранс»";"активна";"1716189";"{type=Point, coordinates=[37.5028778306841, 55.8444909968625]}";
"275";"«Акад. Туризма», Лихоборская набережная (от центра)";"37.5120668638116";"55.8515035986063";"Лихоборская набережная";"Северный административный округ";"Головинский район";"А65К; А72; А65";"Акад. Туризма";"от центра";"нет";"";"активна";"1716190";"{type=Point, coordinates=[37.5120668947816, 55.8515032308199]}";
"276";"«Лихоборская наб.», Лихоборская набережная (от центра)";"37.5168394257863";"55.8529508485066";"Лихоборская набережная";"Северный административный округ";"Головинский район";"А65К; А72; А65";"Лихоборская наб.";"от центра";"да";"ГУП «Мосгортранс»";"активна";"1716191";"{type=Point, coordinates=[37.5168394569084, 55.8529504805486]}";
"277";"«Солнечногорская ул.,15 - Торговое училище», Солнечногорская улица (от центра)";"37.52009395697";"55.8608847552248";"Солнечногорская улица";"Северный административный округ";"Головинский район";"А65; А698; А65к";"Солнечногорская ул.,15 - Торговое училище";"от центра";"нет";"";"активна";"1716192";"{type=Point, coordinates=[37.5200939875316, 55.8608843874711]}";
"278";"«Солнечногорская ул.,15 - Торговое училище», Солнечногорская улица (в центр)";"37.5193848628676";"55.8605751645344";"Солнечногорская улица";"Северный административный округ";"Головинский район";"А65К; А698; А65";"Солнечногорская ул.,15 - Торговое училище";"в центр";"да";"ГУП «Мосгортранс»";"активна";"1716193";"{type=Point, coordinates=[37.5193848933979, 55.8605747969316]}";
"279";"«Лихоборская наб.», Лихоборская набережная (в центр)";"37.5157362599984";"55.8527868989221";"Лихоборская набережная";"Северный административный округ";"Головинский район";"А65К; А72; А65";"Лихоборская наб.";"в центр";"да";"ГУП «Мосгортранс»";"активна";"1716194";"{type=Point, coordinates=[37.5157362907352, 55.8527865312067]}";
"280";"«Акад. Туризма», Лихоборская набережная (в центр)";"37.5109809684794";"55.851324046665";"Лихоборская набережная";"Северный административный округ";"Головинский район";"А65К; А72; А65";"Акад. Туризма";"в центр";"да";"ГУП «Мосгортранс»";"активна";"1716195";"{type=Point, coordinates=[37.5109809996175, 55.8513236790452]}";
"281";"«Нарвская ул. - Университет Гражданской Авиации», Лихоборская набережная (в центр)";"37.503224652805";"55.8447298554823";"Лихоборская набережная";"Северный административный округ";"Головинский район";"А65К; А72; А65";"Нарвская ул. - Университет Гражданской Авиации";"в центр";"да";"ГУП «Мосгортранс»";"активна";"1716196";"{type=Point, coordinates=[37.5032246836391, 55.84472948758]}";
"282";"«Пр. Черепановых», Михалковская улица (в центр) (1)";"37.5258239251746";"55.8398222956026";"Михалковская улица";"Северный административный округ";"район Коптево";"А22; А72; А801; А87";"Пр. Черепановых";"в центр";"нет";"";"активна";"1716197";"{type=Point, coordinates=[37.5258239555973, 55.8398219276515]}";
"283";"«Соболевский пр.», Михалковская улица (в центр)";"37.5300680591599";"55.8386967606795";"Михалковская улица";"Северный административный округ";"район Коптево";"А22; А72; А801; А87";"Соболевский пр.";"в центр";"да";"ГУП «Мосгортранс»";"активна";"1716198";"{type=Point, coordinates=[37.5300680901247, 55.8386963930883]}";
"284";"«К/т Байкал», улица Прянишникова (от центра)";"37.5390437977994";"55.8362904599998";"улица Прянишникова";"Северный административный округ";"Тимирязевский район";"А22; А801; А72; А87";"К/т Байкал";"от центра";"нет";"";"активна";"1716199";"{type=Point, coordinates=[37.5390438281664, 55.8362900922527]}";
"285";"«Университет Печати», улица Прянишникова (от центра) (1)";"37.5423527604408";"55.8354031498729";"улица Прянишникова";"Северный административный округ";"Тимирязевский район";"А22; А801; А72; А87";"Университет Печати";"от центра";"нет";"";"активна";"1716200";"{type=Point, coordinates=[37.5423527913413, 55.8354027819221]}";
"286";"«Тимирязевская академия», Тимирязевская улица (в центр) (1)";"37.5498886324162";"55.8334568267262";"Тимирязевская улица";"Северный административный округ";"Тимирязевский район";"А22; А801; А72; А87";"Тимирязевская академия";"в центр";"да";"ГУП «Мосгортранс»";"активна";"1716201";"{type=Point, coordinates=[37.5498886629506, 55.8334564588685]}";
"287";"«Пасечная ул.», Тимирязевская улица (в центр)";"37.5527567309982";"55.8298625458743";"Тимирязевская улица";"Северный административный округ";"Тимирязевский район";"А22; А801; А72; А87";"Пасечная ул.";"в центр";"нет";"";"активна";"1716202";"{type=Point, coordinates=[37.5527567617303, 55.8298621780293]}";
"288";"«Парк Дубки», Тимирязевская улица (в центр)";"37.5622740233364";"55.8183592772372";"Тимирязевская улица";"Северный административный округ";"Тимирязевский район";"А22; А692; А72; А801; А82";"Парк Дубки";"в центр";"да";"ГУП «Мосгортранс»";"активна";"1716203";"{type=Point, coordinates=[37.5622740540533, 55.8183589091544]}";
"289";"«50-я гор. б-ца», улица Вучетича (в центр)";"37.5570553317757";"55.812518242558";"улица Вучетича";"Северный административный округ";"Тимирязевский район";"А22; А692";"50-я гор. б-ца";"в центр";"да";"ГУП «Мосгортранс»";"активна";"1716204";"{type=Point, coordinates=[37.5570553619821, 55.8125178746959]}";
"290";"«Пр. Соломенной Сторожки», улица Вучетича (в центр)";"37.5599998322236";"55.8075101926316";"улица Вучетича";"Северный административный округ";"Тимирязевский район";"А22; А692";"Пр. Соломенной Сторожки";"в центр";"да";"ГУП «Мосгортранс»";"активна";"1716205";"{type=Point, coordinates=[37.559999862474, 55.8075098245067]}";
"291";"«Дмитровский пр.», Тимирязевская улица (в центр)";"37.5713243995002";"55.8074322850488";"Тимирязевская улица";"Северный административный округ";"Тимирязевский район";"А22; А72; А692; А82";"Дмитровский пр.";"в центр";"да";"ГУП «Мосгортранс»";"активна";"1716206";"{type=Point, coordinates=[37.5713244304624, 55.8074319169272]}";
"292";"«Всероссийское Общество Слепых», 2-я Хуторская улица (от центра)";"37.568034355945";"55.8049728754747";"2-я Хуторская улица";"Северный административный округ";"Савёловский район";"А82; А22; А692";"Всероссийское Общество Слепых";"от центра";"да";"ГУП «Мосгортранс»";"активна";"1716207";"{type=Point, coordinates=[37.5680343866753, 55.8049725076436]}";
"293";"«2-я Хуторская ул.», Петровско-Разумовский проезд (в центр)";"37.5635964540297";"55.8025139759276";"Петровско-Разумовский проезд";"Северный административный округ";"Савёловский район";"А22; А692; А82";"2-я Хуторская ул.";"в центр";"да";"ГУП «Мосгортранс»";"активна";"1716208";"{type=Point, coordinates=[37.5635964846058, 55.8025136079285]}";
"294";"«Писцовая ул.», Петровско-Разумовский проезд (в центр) (1)";"37.5682768737494";"55.7977326390659";"Петровско-Разумовский проезд";"Северный административный округ";"Савёловский район";"А22; А82";"Писцовая ул.";"в центр";"да";"ГУП «Мосгортранс»";"активна";"1716209";"{type=Point, coordinates=[37.5682769048366, 55.7977322711344]}";
"295";"«Петровско-Разумовский пр.», Петровско-Разумовский проезд (в центр)";"37.5685608452783";"55.7959898249676";"Петровско-Разумовский проезд";"Северный административный округ";"Савёловский район";"А22";"Петровско-Разумовский пр.";"в центр";"да";"ГУП «Мосгортранс»";"активна";"1716210";"{type=Point, coordinates=[37.5685608757679, 55.7959894566841]}";
"298";"«Петровско-Разумовский пр.», Петровско-Разумовский проезд (от центра)";"37.5690049071307";"55.7946241961985";"Петровско-Разумовский проезд";"Северный административный округ";"Савёловский район";"А22";"Петровско-Разумовский пр.";"от центра";"да";"ГУП «Мосгортранс»";"активна";"1716211";"{type=Point, coordinates=[37.5690049381611, 55.7946238282053]}";
"299";"«Писцовая ул.», Петровско-Разумовский проезд (от центра)";"37.5680114926483";"55.7983349275804";"Петровско-Разумовский проезд";"Северный административный округ";"Савёловский район";"А22; А82; А692";"Писцовая ул.";"от центра";"да";"ГУП «Мосгортранс»";"активна";"1716212";"{type=Point, coordinates=[37.5680115236394, 55.7983345595772]}";
"300";"«2-я Хуторская ул.», Петровско-Разумовский проезд (от центра)";"37.5640846012199";"55.8023896168005";"Петровско-Разумовский проезд";"Северный административный округ";"Савёловский район";"А22; А692; А82";"2-я Хуторская ул.";"от центра";"да";"ГУП «Мосгортранс»";"активна";"1716213";"{type=Point, coordinates=[37.564084631824, 55.8023892489405]}";
"301";"«Всероссийское Общество Слепых», 2-я Хуторская улица (в центр)";"37.5684170432563";"55.8049187666848";"2-я Хуторская улица";"Северный административный округ";"Савёловский район";"А22; А692; А82";"Всероссийское Общество Слепых";"в центр";"да";"ГУП «Мосгортранс»";"активна";"1716214";"{type=Point, coordinates=[37.5684170743745, 55.8049183988489]}";
"302";"«Дмитровский пр.», Тимирязевская улица (от центра)";"37.5704440516741";"55.8088693222808";"Тимирязевская улица";"Северный административный округ";"Тимирязевский район";"А22; А604; А692; А72; А82";"Дмитровский пр.";"от центра";"да";"ГУП «Мосгортранс»";"активна";"1716215";"{type=Point, coordinates=[37.5704440823889, 55.8088689544457]}";
"303";"«50-я гор. б-ца», улица Вучетича (от центра)";"37.5578553540079";"55.8117306933723";"улица Вучетича";"Северный административный округ";"Тимирязевский район";"А22; А604; А801; А692";"50-я гор. б-ца";"от центра";"да";"ГУП «Мосгортранс»";"активна";"1716216";"{type=Point, coordinates=[37.5578553844959, 55.8117303251457]}";
"304";"«Парк Дубки», Тимирязевская улица (от центра)";"37.5617093769893";"55.819402492737";"Тимирязевская улица";"Северный административный округ";"Тимирязевский район";"А22; А604; А692; А72; А801; А82";"Парк Дубки";"от центра";"да";"ГУП «Мосгортранс»";"активна";"1716217";"{type=Point, coordinates=[37.5617094081045, 55.8194021247155]}";
"305";"«Красностуденческий пр.», Тимирязевская улица (от центра)";"37.5589105671061";"55.8227582397747";"Тимирязевская улица";"Северный административный округ";"Тимирязевский район";"А22; А801; А72";"Красностуденческий пр.";"от центра";"нет";"";"активна";"1716218";"{type=Point, coordinates=[37.5589105977393, 55.8227578720662]}";
"306";"«Пасечная ул.», Тимирязевская улица (от центра) (2)";"37.5524384850163";"55.8305633335711";"Тимирязевская улица";"Северный административный округ";"Тимирязевский район";"А22; А801; А72; А87";"Пасечная ул.";"от центра";"нет";"";"активна";"1716219";"{type=Point, coordinates=[37.5524385155795, 55.830562965746]}";
"307";"«Тимирязевская академия», Тимирязевская улица (от центра) (1)";"37.5500038169704";"55.8338134114535";"Тимирязевская улица";"Северный административный округ";"Тимирязевский район";"А22; А801; А72; А87";"Тимирязевская академия";"от центра";"да";"ГУП «Мосгортранс»";"активна";"1716220";"{type=Point, coordinates=[37.5500038476307, 55.8338130437938]}";
"308";"«Университет Печати», улица Прянишникова (в центр) (1)";"37.5418410685348";"55.8356935471534";"улица Прянишникова";"Северный административный округ";"Тимирязевский район";"А22; А72; А87; А801";"Университет Печати";"в центр";"да";"ГУП «Мосгортранс»";"активна";"1716221";"{type=Point, coordinates=[37.5418410992837, 55.835693179374]}";
"309";"«К/т Байкал», Михалковская улица (от центра) (1)";"37.5375805612642";"55.836843414734";"Михалковская улица";"Северный административный округ";"район Коптево";"А22; А801; А72; А87";"К/т Байкал";"от центра";"да";"ГУП «Мосгортранс»";"активна";"1716222";"{type=Point, coordinates=[37.5375805920619, 55.8368430467756]}";
"323";"«Рыбокомбинат», Ижорская улица (от центра)";"37.5053346689239";"55.8853792686342";"Ижорская улица";"Северный административный округ";"район Западное Дегунино";"А799; А200; А656";"Рыбокомбинат";"от центра";"да";"ГУП «Мосгортранс»";"активна";"1716223";"{type=Point, coordinates=[37.505334699947, 55.8853789010725]}";
"324";"«Ижорская ул.», Ижорская улица (от центра)";"37.5107007230679";"55.8887324039317";"Ижорская улица";"Северный административный округ";"район Западное Дегунино";"А799; А200; А656";"Ижорская ул.";"от центра";"да";"ГУП «Мосгортранс»";"активна";"1716224";"{type=Point, coordinates=[37.5107007540814, 55.8887320365594]}";
"325";"«15-й таксомоторный парк», улица Лавочкина (в центр)";"37.4849912671239";"55.8663651023864";"улица Лавочкина";"Северный административный округ";"район Ховрино";"А801; А851; А200; А673";"15-й таксомоторный парк";"в центр";"да";"ГУП «Мосгортранс»";"активна";"1716225";"{type=Point, coordinates=[37.4849912983029, 55.8663647347613]}";
"327";"«К/т Волга - Дом мебели 777», Дмитровское шоссе (в центр)";"37.5425429015009";"55.888523338829";"Дмитровское шоссе";"Северный административный округ";"Дмитровский район";"А763К; А685; А763; А63; А149; Тб78";"К/т Волга - Дом мебели 777";"в центр";"да";"ГУП «Мосгортранс»";"активна";"1716227";"{type=Point, coordinates=[37.5425429324493, 55.8885229710971]}";
"332";"«Селигерская ул.», Дмитровское шоссе (в центр) (1)";"37.5467005456209";"55.8691135233997";"Дмитровское шоссе";"Северный административный округ";"Бескудниковский район";"А763; Тб78; А763К; А63; А994; А179";"Селигерская ул.";"в центр";"да";"ГУП «Мосгортранс»";"активна";"1716232";"{type=Point, coordinates=[37.5467005763015, 55.869113155742]}";
"335";"«7-й автобусный парк», Дмитровское шоссе (от центра) (4)";"37.5653397629044";"55.8518912640334";"Дмитровское шоссе";"Северный административный округ";"Бескудниковский район";"А154; Тб36; АТ47; Тб56; Тб78";"7-й автобусный парк";"от центра";"да";"ГУП «Мосгортранс»";"активна";"1716235";"{type=Point, coordinates=[37.5653397938151, 55.8518908962573]}";
"336";"«Нижн. Лихоборы», Дмитровское шоссе (от центра) (4)";"37.5682354005798";"55.8469580003715";"Дмитровское шоссе";"Северный административный округ";"Тимирязевский район";"АТ47; Тб56; Тб78";"Нижн. Лихоборы";"от центра";"нет";"";"активна";"1716236";"{type=Point, coordinates=[37.568235431468, 55.8469576325634]}";
"339";"«434-е отделение связи», Дмитровское шоссе (в центр)";"37.5727243233956";"55.8225583945541";"Дмитровское шоссе";"Северный административный округ";"Тимирязевский район";"А994; А466; А319; АМ10; АТ47; А87; Тб56; Тб78; А604";"434-е отделение связи";"в центр";"да";"ООО «Праймсайт»";"активна";"1716239";"{type=Point, coordinates=[37.5727243542149, 55.8225580265948]}";
"340";"«Ул. Всеволода Вишневского», Дмитровское шоссе (в центр)";"37.5778426753866";"55.8127281518651";"Дмитровское шоссе";"Северный административный округ";"Тимирязевский район";"АМ10; АТ47; А87; Тб56; Тб78; А604";"Ул. Всеволода Вишневского";"в центр";"да";"ООО «Праймсайт»";"активна";"1716240";"{type=Point, coordinates=[37.5778427061647, 55.8127277838426]}";
"341";"«Метро Дмитровская», Бутырская улица (в центр)";"37.5811663876647";"55.8066756663682";"Бутырская улица";"Северный административный округ";"Савёловский район";"А574; АТ47; Тб56; Тб78; АТ29; АТ29К; АТ3";"Метро Дмитровская";"в центр";"да";"ГУП «Мосгортранс»";"активна";"1716241";"{type=Point, coordinates=[37.581166418417, 55.8066752983067]}";
"342";"«Троллейбусный з-д», Бутырская улица (в центр)";"37.5830414578307";"55.8018993355634";"Бутырская улица";"Северный административный округ";"Савёловский район";"АМ10; АТ47; А87; Тб56; Тб78; АТ29; АТ29К; АТ3";"Троллейбусный з-д";"в центр";"да";"ООО «Праймсайт»";"активна";"1716242";"{type=Point, coordinates=[37.5830414885658, 55.8018989674716]}";
"343";"«Бутырская ул., 46», Бутырская улица (в центр)";"37.5834795378618";"55.7998365347101";"Бутырская улица";"Северный административный округ";"Савёловский район";"АМ10; АТ47; А87; Тб56; Тб78; АТ29; АТ29К; АТ3";"Бутырская ул., 46";"в центр";"да";"ООО «Праймсайт»";"активна";"1716243";"{type=Point, coordinates=[37.5834795685911, 55.7998361666056]}";
"344";"«Савеловский вокз.», Бутырская улица (в центр) (1)";"37.5840258016124";"55.7949382298484";"Бутырская улица";"Северный административный округ";"Савёловский район";"АМ10; АТ47; Тб56; Тб78; АТ29; АТ29К; АТ3; А84; А84К";"Савеловский вокз.";"в центр";"да";"ООО «Праймсайт»";"активна";"1716244";"{type=Point, coordinates=[37.5840258323296, 55.7949378617139]}";
"346";"«2-й Лесной пер.», улица Бутырский Вал (от центра)";"37.586580579168";"55.7821629486589";"улица Бутырский Вал";"Центральный административный округ";"Тверской район";"А12; Тб18; Тб56; Тб78";"2-й Лесной пер.";"от центра";"да";"ГУП «Мосгортранс»";"активна";"1716245";"{type=Point, coordinates=[37.5865806098494, 55.7821625804454]}";
"348";"«Ул. Сущевский Вал», Новослободская улица (от центра)";"37.5907444561375";"55.7905498632665";"Новослободская улица";"Центральный административный округ";"Тверской район";"АМ10; АТ47; Тб56; Тб78; АТ29; АТ29К; АТ3";"Ул. Сущевский Вал";"от центра";"да";"ООО «Праймсайт»";"активна";"1716246";"{type=Point, coordinates=[37.590744486819, 55.7905494951006]}";
"349";"«Савеловский вокз.», Бутырская улица (от центра) (1)";"37.5846015789665";"55.795746284115";"Бутырская улица";"Северо-Восточный административный округ";"Бутырский район";"АТ47; Тб56; Тб78";"Савеловский вокз.";"от центра";"да";"ООО «Праймсайт»";"активна";"1716247";"{type=Point, coordinates=[37.584601609683, 55.7957459159849]}";
"350";"«Троллейбусный з-д», Бутырская улица (от центра) (1)";"37.5831164364246";"55.8034448758843";"Бутырская улица";"Северо-Восточный административный округ";"Бутырский район";"АМ10; АТ47; А87; Тб56; Тб78; АТ29; АТ29К; АТ3";"Троллейбусный з-д";"от центра";"да";"ООО «Праймсайт»";"активна";"1716248";"{type=Point, coordinates=[37.5831164671625, 55.8034445078018]}";
"351";"«Метро Дмитровская», Бутырская улица (от центра) (1)";"37.5815263927644";"55.8072474317994";"Бутырская улица";"Северо-Восточный административный округ";"Бутырский район";"АТ47; Тб56; Тб78";"Метро Дмитровская";"от центра";"да";"ООО «Праймсайт»";"активна";"1716249";"{type=Point, coordinates=[37.5815264235165, 55.8072470637411]}";
"352";"«Ул. Всеволода Вишневского», Дмитровское шоссе (от центра) (1)";"37.5779720186339";"55.8135904130029";"Дмитровское шоссе";"Северный административный округ";"Тимирязевский район";"АМ10; АТ47; А87; Тб56; Тб78";"Ул. Всеволода Вишневского";"от центра";"да";"ГУП «Мосгортранс»";"активна";"1716250";"{type=Point, coordinates=[37.5779720494132, 55.8135900449855]}";
"353";"«434-е отделение связи», Дмитровское шоссе (от центра)";"37.5733882876355";"55.8222025268386";"Дмитровское шоссе";"Северный административный округ";"Тимирязевский район";"А994; А466; АМ10; АТ47; А87; Тб56; Тб78";"434-е отделение связи";"от центра";"да";"ООО «Праймсайт»";"активна";"1716251";"{type=Point, coordinates=[37.5733883184513, 55.8222021588766]}";
"355";"«К/т Комсомолец», Дмитровское шоссе (в центр) (1)";"37.5697368725822";"55.8416177466973";"Дмитровское шоссе";"Северный административный округ";"Тимирязевский район";"А994; АТ47; А82; Тб56; Тб78; А692";"К/т Комсомолец";"в центр";"нет";"";"активна";"1716253";"{type=Point, coordinates=[37.5697369034531, 55.8416173788557]}";
"356";"«Нижн. Лихоборы», Дмитровское шоссе (в центр) (1)";"37.5678230415842";"55.8465306792204";"Дмитровское шоссе";"Северный административный округ";"Тимирязевский район";"Тб36; АТ47; Тб56; Тб78";"Нижн. Лихоборы";"в центр";"нет";"";"активна";"1716254";"{type=Point, coordinates=[37.5678230724733, 55.84653031141]}";
"357";"«7-й автобусный парк», Дмитровское шоссе (в центр) (1)";"37.5659008173016";"55.8503732866235";"Дмитровское шоссе";"Северный административный округ";"район Западное Дегунино";"А994; АМ10; Тб36; АТ47; Тб56; Тб78";"7-й автобусный парк";"в центр";"да";"ГУП «Мосгортранс»";"активна";"1716255";"{type=Point, coordinates=[37.5659008482068, 55.8503729188378]}";
"367";"«Лианозовский элмех. з-д», Дмитровское шоссе (от центра) (1)";"37.5434788844734";"55.8914586954701";"Дмитровское шоссе";"Северный административный округ";"Дмитровский район";"А149; А284; А63; А685; А763; А763К; А774; А92; Тб78";"Лианозовский элмех. з-д";"от центра";"да";"ГУП «Мосгортранс»";"активна";"1716265";"{type=Point, coordinates=[37.5434789149864, 55.8914583277136]}";
"368";"«М-н Спортмастер», Дмитровское шоссе (от центра)";"37.5731602758997";"55.829355684432";"Дмитровское шоссе";"Северный административный округ";"Тимирязевский район";"А994; А466; АМ10; АТ47; А82; Тб56; Тб78; А692";"М-н Спортмастер";"от центра";"да";"ГУП «Мосгортранс»";"активна";"1716266";"{type=Point, coordinates=[37.573160306731, 55.8293553165136]}";
"369";"«Ул. Марш. Федоренко», Краснополянская улица (в центр)";"37.4868444779406";"55.8840264270158";"Краснополянская улица";"Северный административный округ";"район Западное Дегунино";"А200; А656";"Ул. Марш. Федоренко";"в центр";"да";"ГУП «Мосгортранс»";"активна";"1716267";"{type=Point, coordinates=[37.4868445096825, 55.8840260593254]}";
"372";"«Херсонская ул., 32», Херсонская улица (в центр)";"37.5597810064398";"55.6548846427548";"Херсонская улица";"Юго-Западный административный округ";"район Черёмушки";"А246";"Херсонская ул., 32";"в центр";"да";"ГУП «Мосгортранс»";"активна";"1716269";"{type=Point, coordinates=[37.5597810361893, 55.6548842737168]}";
"374";"«Пехотная ул.», Волоколамское шоссе (в центр)";"37.4829347315554";"55.8112360310587";"Волоколамское шоссе";"Северо-Западный административный округ";"район Щукино";"А904; Тб70; Тб82; А412; А456; А88; АО6; А904К; АМ1";"Пехотная ул.";"в центр";"да";"ГУП «Мосгортранс»";"активна";"1716270";"{type=Point, coordinates=[37.4829347634742, 55.8112356633162]}";
"377";"«Ул. Серегина», Ленинградский проспект (в центр) (1)";"37.5448504394937";"55.7942067251475";"Ленинградский проспект";"Северный административный округ";"Хорошёвский район";"А105; А904; А905; АН1; Тб12; Тб43; Тб65; Тб6; Тб70; Тб82; А412; А456; А904К; АМ1";"Ул. Серегина";"в центр";"да";"ЗАО «Валль СНГ»";"активна";"1716271";"{type=Point, coordinates=[37.5448504697446, 55.7942063569287]}";
"378";"«Путевой дворец», Ленинградский проспект (в центр) (1)";"37.548943302875";"55.7924240561844";"Ленинградский проспект";"Северный административный округ";"Хорошёвский район";"А105; А84; АН1; Тб12; Тб65; Тб70; Тб82; А318; А456; АМ1";"Путевой дворец";"в центр";"да";"ЗАО «Валль СНГ»";"активна";"1716272";"{type=Point, coordinates=[37.5489433333704, 55.7924236881152]}";
"310";"«Соболевский пр.», Михалковская улица (от центра)";"37.5272454374494";"55.8396068085327";"Михалковская улица";"Северный административный округ";"район Коптево";"А22; А801; А72; А87";"Соболевский пр.";"от центра";"да";"ГУП «Мосгортранс»";"активна";"1716273";"{type=Point, coordinates=[37.5272454685512, 55.8396064409143]}";
"312";"«М-н Оптика», Петровско-Разумовский проезд (от центра)";"37.5697017713675";"55.7919828691704";"Петровско-Разумовский проезд";"Северный административный округ";"Савёловский район";"А22; Тб29";"М-н Оптика";"от центра";"да";"ГУП «Мосгортранс»";"активна";"1716274";"{type=Point, coordinates=[37.569701801743, 55.7919825011661]}";
"313";"«Пр. Соломенной Сторожки», улица Вучетича (от центра)";"37.5599388603067";"55.808105850335";"улица Вучетича";"Северный административный округ";"Тимирязевский район";"А22; А604; А801; А692";"Пр. Соломенной Сторожки";"от центра";"да";"ГУП «Мосгортранс»";"активна";"1716275";"{type=Point, coordinates=[37.5599388911225, 55.8081054823131]}";
"314";"«Ижорская ул.», Ижорская улица (в центр)";"37.5108978732616";"55.8891054530555";"Ижорская улица";"Северный административный округ";"Дмитровский район";"А799; А200; А656";"Ижорская ул.";"в центр";"да";"ГУП «Мосгортранс»";"активна";"1716276";"{type=Point, coordinates=[37.5108979037388, 55.8891050855583]}";
